latitude,longitude,altitude,geometry,osm_id,name,capacity,amenity,iscedlevel
18.5441142,-72.3162758,,Point,613102344,Flaure Susette,,kindergarten,
18.5443592,-72.3144103,,Point,613102347,Institution Mixte le Pragmatisme,,school,
18.5337574,-72.3191078,,Point,613212557,Collège Canapé-Vert,,school,
18.5426849,-72.3067342,,Point,613315712,Ecole fondamentale Louis Maccene,,school,
18.5244141,-72.3516697,,Point,613530599,Séminaire de Théologie de Port-au-Prince (STEP),,school,
18.5406328,-72.4109684,,Point,613614823,Collège Mixte l'Union,,school,
18.2344524,-72.5335803,,Point,614135061,Ecole J.M. Hendriquez,,school,
18.2334289,-72.5350696,,Point,614138205,Lycee de Jeunes Filles,,school,
18.2336934,-72.5349269,,Point,614138206,Ecole Magiloire Ambroise,,school,
18.2383622,-72.5381732,,Point,614138209,Ecole Miranda,,school,
18.2358971,-72.5348113,,Point,614227855,Ecole A. Pomayrac,,school,
18.2355901,-72.53634180000002,,Point,614361351,Ecole des Soeurs Reine Immaculee,,school,
18.2395032,-72.538784,,Point,614381267,Ecole Francois Duvalier,,school,
19.4481035,-72.6921047,,Point,614436114,,,school,
19.4488709,-72.6920135,,Point,614436115,,,school,
19.4465852,-72.6872831,,Point,614436116,École des Frères de l'Instruction Chrétienne,,school,
19.4477026,-72.6875813,,Point,614436119,École des Soeurs de Saint Joseph de Cluny,,school,
19.4466986,-72.6900669,,Point,614438734,École Jean-Jacques Dessalines,,school,
19.4493421,-72.6953836,,Point,614441838,,,school,
19.4476522,-72.6955322,,Point,614451802,Lycée des Jeunes Filles,,school,
19.4413774,-72.692347,,Point,614452744,École Cité,,school,
18.5654607,-72.34673,,Point,614595817,Ecole Mixte TES'NV,,school,
19.763478300000003,-72.2015965,,Point,615029088,Faculte de Droit des Sciences Economiques et de Gestion du Cap-Haitien,,college,
19.7624906,-72.2044528,,Point,615039673,École des Freres,,school,
19.7610752,-72.1977505,,Point,615046655,College Regina Assumpta,,college,
19.7613646,-72.2019926,,Point,615049997,École et Musée,,school,
19.758604400000003,-72.1990497,,Point,615050970,École Practique du Nord,,school,
18.5088191,-72.6303752,,Point,615094330,Collège Toussaint Louverture,,school,
18.5240658,-72.2816306,,Point,615327344,Ecole catholique Soeurs Saleziennes,,school,
18.5237814,-72.2816561,,Point,615327346,Ecole methodiste des Freres,,school,
18.5666844,-72.2645811,,Point,615327347,Lycee Jean Marie Vincent de Tabarre,,school,
18.5871542,-72.2881358,,Point,615327348,Ecole Nationale de Source Cazeau,,school,
18.5795309,-72.2726827,,Point,615327351,Ecole Nationale de Tabarre,,school,
18.543837200000002,-72.341032,,Point,615333970,,,school,
18.7340251,-72.4196397,,Point,615351076,,,school,
18.5413898,-72.3213821,,Point,615868023,GOC Universite,,university,
18.1917736,-73.7484549,,Point,616064943,École de Commerce Julian Craon,,college,
18.1927996,-73.7473703,,Point,616064946,College Frère Odile Joseph,,school,
18.193798700000002,-73.74764360000002,,Point,616064950,École des Sœurs,,school,
18.1934867,-73.7537626,,Point,616073725,École La Sainte- Famille,,school,
18.1983942,-73.7575713,,Point,616073728,La Providence,,school,
18.1947053,-73.75355450000002,,Point,616074511,Ecole Mixte Calvin Des Cayes,,school,
18.1992071,-73.7507719,,Point,616075921,Ecole Nationale Michel Lazare,,school,
18.1913939,-73.7507256,,Point,616290496,Collège Lysius Saloman,,school,
18.1952288,-73.7507175,,Point,616290526,Ecole Semiramis Telemaque,,school,
18.2427119,-72.53502730000001,,Point,616760623,IPEDH Campus,,school,
18.2478762,-72.5323765,,Point,616760646,Colleqe Omega,,school,
18.5059983,-72.6269433,,Point,616838844,College Classique,,school,
18.5070153,-72.6289924,,Point,616838857,,,school,
18.5084331,-72.6267386,,Point,616838863,College Benoit XVI,,school,
18.5066471,-72.6221188,,Point,616838873,College Chretien De Leogan,,school,
18.5085125,-72.6313463,,Point,616852032,St Marie School,,school,
18.5101858,-72.6286536,,Point,616852045,Christian Leader School,,school,
18.1923158,-73.7543501,,Point,616872507,Centre d'Études Secondaires,,school,
18.2341755,-72.5360319,,Point,616887071,Centre Formation Proffessionelle Bethesda,,college,
19.6662534,-71.8396931,,Point,616950408,Ecole des Soeurs,,school,
19.6650819,-71.8387656,,Point,616956859,,,school,
18.2365013,-72.5340263,,Point,617025611,College Saint Paul,,school,
19.6669174,-71.8369442,,Point,617142823,,,school,
18.2392667,-72.5391563,,Point,617293346,Ecole La Saintete,,school,
18.2387488,-72.5382315,,Point,617293350,Centre d'Etudes La Trinite,,school,
19.6509185,-71.8310368,,Point,617299412,Training School for Teachers,,school,
19.6650374,-71.8379985,,Point,617310354,College Eben-Ezer,,school,
19.5509774,-71.7233856,,Point,617332021,CLARC College,,school,
19.5537413,-71.7202501,,Point,617332023,Institution Univers,,school,
19.5493334,-71.7223423,,Point,617332024,EFACAP,,school,
19.5504657,-71.7206618,,Point,617335609,Oswald College,,school,
19.5480946,-71.72015720000002,,Point,617335619,George Muller,,school,
19.5514009,-71.7244384,,Point,617335624,Catholic School,,school,
18.4327877,-72.8637504,,Point,617556035,Ecole Sacre Coeur,,school,
18.5385377,-72.31918610000001,,Point,617595738,Mickey Mous,,school,
19.7622384,-72.2031731,,Point,617931058,FIC School,,school,
19.7618975,-72.20478720000001,,Point,617931170,Antennor Firmin School,,school,
19.7619102,-72.2032857,,Point,617931171,Chez Les Freres,,school,
19.7616048,-72.2043042,,Point,617931493,Jacques George School,,school,
18.5726549,-72.3256002,,Point,618011177,Collège mixte Salnave Jean,6 salles,school,
18.1936913,-73.7471333,,Point,619570380,Externat Saint Joseph,,school,
18.2110226,-73.754486,,Point,619621255,Pradel Pampilus,,school,
18.5331238,-72.3968675,,Point,620158270,La Joie des Petits Kindergarten Primaire,,school,
19.4630973,-72.6761892,,Point,621904164,Ecole Solferino,,school,
19.4490877,-72.6860028,,Point,621911834,Ecole D'Arts,,school,
18.480426,-72.632266,,Point,627949171,,,school,
18.528117,-72.57535,,Point,627949172,,,school,
18.522591,-72.592289,,Point,627949173,,,school,
18.530865,-72.37994,,Point,627949174,,,school,
18.5358598,-72.3981937,,Point,627949176,College Catherine Flon,,school,
18.532865,-72.38713300000002,,Point,627949182,,,school,
18.528112,-72.38202500000001,,Point,627949184,,,school,
18.532254,-72.402042,,Point,627949185,College Mixte Frère Jean Pierre Primaire /Secondaire,,school,
18.533789,-72.296555,,Point,627949187,,,school,
18.540109600000005,-72.29736420000002,,Point,627949188,,,school,
18.5169721,-72.2855101,,Point,627949192,,,school,
18.5270848,-72.2870887,,Point,627949213,,,school,
18.5516446,-72.3079862,,Point,629118542,Institution Marie Clarac,,school,
18.5517821,-72.30628900000002,,Point,629118545,Beaba de St Gregoire,,school,
18.5550927,-72.3043123,,Point,629118548,College vision Caraibenne,,school,
19.7659643,-72.19515030000001,,Point,632658938,École Professionelle Saint Esprit,,college,
19.7653737,-72.2001951,,Point,633021853,Lycée Nationale Philippe Guerrier,,school,
18.4630592,-72.633734,,Point,743178664,De Sion Cotin,,school,
18.4581927,-72.633857,,Point,743178667,INHAC,,school,
18.4551763,-72.632423,,Point,743178685,Alliance Chretienne Grail Lemaine,,school,
18.564682,-72.3456482,,Point,747494560,Ecole St Martin de Porres,,school,
18.5930972,-72.3075795,,Point,753716185,Institution Classique Abraham,,school,
18.5957061,-72.3147527,,Point,753716192,Ecole Chrétienne des Frères Unis,,school,
18.5964863,-72.3121023,,Point,753716245,Institution Mixte Occean du Savoir,,school,
18.5918119,-72.3114298,,Point,753716249,Centre d'etude Parvillon des Anges,500,kindergarten,
18.5948966,-72.3107496,,Point,753716281,Centre d'éducation Nouvelle,,kindergarten,
18.5945124,-72.3053298,,Point,753716303,Collège Bon Samaritain,,school,
18.5988701,-72.3134142,,Point,753716326,Ecole Notre Dame de Grace,850,school,
18.628321,-72.3208515,,Point,754186968,Ecole Fondamentale Olimpcia,,school,
18.6145276,-72.3165006,,Point,756587194,,,school,
18.6146396,-72.3183022,,Point,756587197,Ecole communautaire,,school,
18.5744179,-72.2635181,,Point,764526879,Centre Salesien d'Enseignement Superieur,,school,
18.578213,-72.26812,,Point,764622215,Institution les Ephyrs,,school,
18.5812306,-72.2721114,,Point,764622220,Surzon Kindergarten,,school,
18.5777669,-72.2681052,,Point,764622221,College Soffycort Primaire /Secondaire,,school,
18.5579529,-72.2559518,,Point,764622705,College Mixte Reconnaissance de Caradeux (COMREC),,school,
18.5670634,-72.2809233,,Point,764636952,Ecole Andre Simeus,,school,
18.5871619,-72.2699349,,Point,764641341,Institution Saint Stanislas (ISAS),,school,
18.5864145,-72.2778225,,Point,765091405,"Centre d'Etude d""Haiti (CEH)",,school,
18.5859081,-72.2753453,,Point,765091407,Institution Mixte Shekinah # 2,,school,
18.5871292,-72.2772627,,Point,765091408,College Mixte Bon Samaritain de Source Cazeau Primaire/Secondaire,,school,
18.5861316,-72.2750041,,Point,765091410,Ecole le Souverrain de Tabarre,,school,
18.5869806,-72.2713921,,Point,765091412,College Mixte Freres Moise Primaire/Secondaire,,school,
18.5860584,-72.2747007,,Point,765091413,Centre de Formation Pédagogique de Clercine,,school,
18.5967207,-72.2750323,,Point,765178935,Ecole La jaconde Kindergarten /Primaire,,school,
18.5951448,-72.2748524,,Point,765178945,Ecole Foyer Divin,,school,
18.596972600000004,-72.2792461,,Point,765178946,Ecole Mixte son Excellence Kindergarten Fondamentale,,school,
18.59631,-72.274671,,Point,765178948,Fondation Vierge Marie Aide et Secours,,school,
18.5429442,-72.3115471,,Point,767998896,Institution Mixte Alma Mater,,school,
18.5429297,-72.3113574,,Point,767998898,Ecole Pierre Yves,,school,
18.541083700000005,-72.3117021,,Point,768063835,Institution Mixte Service Amical,,school,
18.5372433,-72.3140888,,Point,768063836,École Nationale de la République de Colombie,300,school,
18.543497,-72.310503,,Point,768063837,Ecole Mixte Pentecostale de la Saintete,,school,
18.5412651,-72.3108935,,Point,768063838,Institution Mixte Charlemagne Peralte,,school,
18.5474861,-72.30089730000002,,Point,768063839,Ecole Emile Saint Lot,,school,
18.53745,-72.3087044,,Point,768063840,École Village des Enfants,,school,
18.5367595,-72.3124642,,Point,768063842,Saint-Louis de Bourdon,,school,
18.5383243,-72.3199669,,Point,768080548,College Classique de Bourdon,,school,
18.5405665,-72.3169271,,Point,768080558,Institution mixte el Shaddai,,school,
18.5439121,-72.3150833,,Point,768080560,Centre d'Etudes Secondaires FILSECCAM La Ruche,,school,
18.5439931,-72.3195392,,Point,768098721,Collège Mixte La Bergerie,,school,
18.536855,-72.24312580000002,,Point,773334578,College Encadrement pour Tous,,school,
18.5403808,-72.240007,,Point,773334601,Ecole Nationale de Soisson,,school,
18.5323342,-72.4019286,,Point,775367396,Collège Mixte Historia /Primaire /Secondaire,,school,
18.530491500000004,-72.402832,,Point,775367418,Institution Mixte la Providence Primaire /Secondaire,,school,
18.5294759,-72.4032549,,Point,775367425,Collège Emmanuel Kant Primaire /Secondaire,,school,
18.5355877,-72.4052453,,Point,775367432,Ecole Frère Polycap Primaire/Secondaire,,school,
18.5345455,-72.3966322,,Point,775367439,Collège Ernst Cassi Primaire/Secondaire,,school,
18.5338464,-72.4006023,,Point,775367441,College Mixte Christ de Rédempteur Kindergarten/Primaire,,school,
18.5347395,-72.4041918,,Point,775367446,Référence Ecole Normal Primaire/Secondaire,,school,
18.52962,-72.4032078,,Point,775367451,Institution Mixte Jubiler Primaire /Secondaire,,school,
18.5315496,-72.4067034,,Point,775367457,Ecole Mixte Roche Damas /Primaire /Secondaire,,school,
18.52949,-72.4046697,,Point,775367466,Collège Royaume Uni /Kindergarten /Primaire,,school,
18.5338292,-72.4006451,,Point,775367470,Collège Mixte Frère Matelier Kindergarten/Primaire,,school,
18.5321168,-72.3959878,,Point,775367474,College Mixte Booze Kindergarten/Primaire,,school,
18.5356293,-72.4021494,,Point,775367480,Centre d'Etude Jacques Stephene Alexis Primaire/Secondaire,,school,
18.5306681,-72.4017181,,Point,775367484,Collège Mixte Élohim Primaire /Secondaire,,school,
18.5295706,-72.4048463,,Point,775367488,College Louis Joseph Janvier /Primaire /Secondaire,,school,
18.5299389,-72.3993682,,Point,775367498,College Roodler Cazeau School Ernst /Primaire,,school,
18.5352961,-72.4052467,,Point,775367508,College Classique Univers Primaire/Secondaire,,school,
18.5317305,-72.402705,,Point,775367512,Collège Saint Denis Primaire /Secondaire,,school,
18.5302607,-72.3943844,,Point,775367516,Nouveau Collège évangélique Josué Kindergarten/Primaire,,school,
18.5294946,-72.4005337,,Point,775367520,Collège Mixte Capois la Mort Primaire/Secondaire,,school,
18.5338193,-72.3960445,,Point,775367539,Ecole Quisqueya Primaire,,school,
18.5331682,-72.4008397,,Point,775367542,Collège Notre-Dame d'Haïti Kindergarten/Primaire,,school,
18.5342917,-72.40420820000001,,Point,775367547,Collège Mixte Jule André Marc Primaire/Secondaire,,school,
18.5301966,-72.4066764,,Point,775367552,Ecole Mixte Stenio G. Vincent /Primaire/Secondaire,,school,
18.5331169,-72.4071668,,Point,775367568,Institut Mixte Generation Future. Primaire/ Secondaire,,school,
18.5295356,-72.3934736,,Point,775367581,Institution Evangélique de la Vérité Primaire,,school,
18.5303482,-72.4020763,,Point,775367588,Carillons des Petits Kindergarten,,school,
18.5359261,-72.4051901,,Point,775367596,Collège des Universitaires d'Haïti Primaire/Secondaire,,school,
18.536263,-72.4037118,,Point,775367622,College Mixte Evangélique Indigène d'Haïti Primaire/Secondaire,,school,
18.5333919,-72.3934999,,Point,775367631,Institut Classique de Carrefour Kindergarten Primaire,,school,
18.5299312,-72.4039842,,Point,775367637,Institut Bon Départ /Kindergarten,,school,
18.5322798,-72.3960581,,Point,775367645,Ecole Notre-Dame des Petits Kindergarten,,school,
18.535429400000005,-72.4016487,,Point,775367650,College Vision Poétique Primaire/Secondaire,,school,
18.5340809,-72.3952043,,Point,775367657,ICDH Section Kindergarten,,school,
18.5342336,-72.3960118,,Point,775367665,College Eli Blaise Kindergarten/Primaire/Secondaire,,school,
18.5341273,-72.3935856,,Point,775367669,Institut Chrétienne d'Haïti Primaire,,school,
18.5325593,-72.3959934,,Point,775367672,Ecole Christian Academie Primaire,,school,
18.5315053,-72.4023573,,Point,775367675,Yainick Kindergarten,,school,
18.5317817,-72.4028125,,Point,775367684,Collège Sciences et Lettre Primaire/Secondaire,,school,
18.5339275,-72.4091638,,Point,775760938,Institution Mixte de la Réforme Écléctique,,school,
18.5372362,-72.4020447,,Point,775760941,Collège Classique de Carrefour,,school,
18.5302365,-72.40667760000001,,Point,775760943,College Mixte Stenio G. Vincent,,school,
18.5406978,-72.4020746,,Point,775760945,Centre d’Etude Moderne de Toussaint Louverture,,school,
18.5315834,-72.4067863,,Point,775760946,College Rocher Damas,,school,
18.5409075,-72.4046624,,Point,775760947,Institution Mixte Pinchinat,,school,
18.5390675,-72.3964899,,Point,775760948,College Notre-Dame du Perpétuel Secours,,school,
18.5300985,-72.4054432,,Point,775760951,Jean Jacques Dessalines Legrand,,school,
18.5354331,-72.4111285,,Point,775760953,College la Bergerie de Brochette,,school,
18.5397379,-72.4031384,,Point,775760956,College Mixte Roi Henry Christophe,,school,
18.5294662,-72.4056699,,Point,775760958,College Jérusalem,,school,
18.5387693,-72.4066609,,Point,775760959,Ecole Adventiste de Béthanie,,school,
18.5391642,-72.401416,,Point,775760962,College Frantz Josius,,school,
18.5414453,-72.4041768,,Point,775760963,Collège Frère de Jésus,,school,
18.535845,-72.4051322,,Point,775760964,Collège des Universitaires d’Haiti,,school,
18.5386103,-72.404951,,Point,775760966,Kindergarten Chante Merle,,school,
18.5383222,-72.4082915,,Point,775760967,Ecole Notre-Dame de la Guadeloupe,,school,
18.5303696,-72.4080262,,Point,775760968,La Maison du Bonheur,,school,
18.5352329,-72.4051907,,Point,775760975,Collège Classique Univers Frère Fleuricin,,school,
18.541816,-72.39616,,Point,775760977,Académie de l’Enfant,,school,
18.5331834,-72.4071393,,Point,775760982,Institution Mixte Generetion Future,,school,
18.5399396,-72.4049858,,Point,775760983,Les Muppets Kindergarten et Garderie,,school,
18.5375235,-72.41029150000001,,Point,775760984,La Nichee Kindergarten,,school,
18.5391183,-72.4041633,,Point,775760985,College Emile Roumer,,school,
18.5375865,-72.4021119,,Point,775760989,Maison d’Enfant Kindergarten,,school,
18.5403159,-72.40137030000001,,Point,775760992,Institution Mixte les Marguerites,,school,
18.540374,-72.4044767,,Point,775760996,College Mixte du Pèlerin,,school,
18.5347101,-72.4087314,,Point,775761000,College Mixte Frère Platon,,school,
18.5382318,-72.4024729,,Point,775761001,Institution Mixte Ignace Nau,,school,
18.5393293,-72.4065808,,Point,775761003,Ecole Mixte Bethesda,,school,
18.5340058,-72.4079882,,Point,775761005,College Mixte Frère Platon,,school,
18.5393634,-72.405964,,Point,775761006,Collège le Français,,school,
18.5410265,-72.4048747,,Point,775761008,College Jean Jacques Rousseau,,school,
18.5366892,-72.41111050000002,,Point,775761009,Kindergarten Fondamentale,,school,
18.5380232,-72.403501,,Point,775761010,College Mixte Shalom,,school,
18.527593,-72.3865201,,Point,781871627,Université Adventiste d’Haïti,,school,
18.5321242,-72.3895016,,Point,781871633,Prudence Kindergarten_Primaire,,school,
18.5276607,-72.3940219,,Point,781871645,Ecole Methodiste de Thor,,school,
18.5300615,-72.3874107,,Point,781871682,Nouveau Collège des Frères Adventistes,,school,
18.5319232,-72.3915504,,Point,781871688,Institution Mixte Emmanuel,,school,
18.530774100000002,-72.3870339,,Point,781871697,Le Pont d’Avion une Traverse Sure Garderie,,school,
18.527026000000003,-72.3859197,,Point,781871712,Ecole Maternelle,,school,
18.5301959,-72.3944021,,Point,781871719,Instutition Fred Bessette,,school,
18.526445,-72.3833127,,Point,781871742,Collège Adventiste de Diquini,,school,
18.532701,-72.3954056,,Point,781871747,The Christian Academy,,school,
18.5275843,-72.3816001,,Point,781871765,Collège Mixte Nid du Savoir,,school,
18.530439,-72.3909025,,Point,781871781,Institution Mixte Jean Carmelien,,school,
18.5274103,-72.3806752,,Point,781871786,Institution Classique Mixte du Rayonnement Intellectuel,,school,
18.52898,-72.3838938,,Point,781871795,College Jean Baptiste Lappe,,school,
18.5244776,-72.3887092,,Point,781871799,Lycee Henry Christophe,,school,
18.5317998,-72.3894963,,Point,781871802,Kindergarten Gentils Moineaux,,school,
18.524839200000002,-72.3953573,,Point,781871808,Instutition mixte Adonai,,school,
18.526420400000003,-72.4047359,,Point,781887064,Ecole Familliale Présbiterale,,school,
18.5275352,-72.4040014,,Point,781887073,Grand College Nerija de Mahotiere,,school,
18.5297121,-72.4056087,,Point,781887083,College Classique Jérusalem,,school,
18.524372,-72.4127967,,Point,782830268,College Mixte Bon Samaritain,,school,
18.524783,-72.4119672,,Point,782830298,Institution Mixte Trilingue,,school,
18.5263652,-72.4121717,,Point,782830335,Institution Mixte JIFPHA,,school,
18.5263007,-72.411236,,Point,782830380,Institution Mixte Souvenir,,school,
18.5264958,-72.4119881,,Point,782830400,Nid d'Or,,school,
18.5273112,-72.4113068,,Point,782830414,College Mixte Picador,,school,
18.5294454,-72.4121472,,Point,782830430,Centre d'Etude Lumiere de Bertin (Annexe Radio Lumiere),,school,
18.5296071,-72.4119614,,Point,782830450,Institution mixte l'Hirondelle,,school,
18.5297633,-72.411581,,Point,782830464,Institution mixte de l'Etoile,,school,
18.5277364,-72.4098728,,Point,782830475,Institution Chrétienne de Carrefour,,school,
18.5283925,-72.409537,,Point,782830538,Institut Splendeur,,school,
18.5282647,-72.4102411,,Point,782830556,College Classique Socrate,,school,
18.5280759,-72.4107176,,Point,782830574,College Frère Nelson,,school,
18.5284317,-72.4094463,,Point,782830615,Jacot Bleu,,school,
18.5294074,-72.4100589,,Point,782830649,Collège Charles Montesquieu,,school,
18.528816,-72.40926880000002,,Point,782830664,College Mixte Sorbonne,,school,
18.5299567,-72.4103113,,Point,782830677,Ecole Sigmund Freud,,school,
18.530079600000004,-72.4101557,,Point,782830720,Pavillon Youpi,,school,
18.530305,-72.4103547,,Point,782830738,Colleges Frères Jean,,school,
18.5304774,-72.4094031,,Point,782830752,Institution Dawson,,school,
18.5302646,-72.4087214,,Point,782830786,Lems-Lynn,,school,
18.5307179,-72.4085681,,Point,782830804,Alfred Binet,,school,
18.534629,-72.4008196,,Point,782830821,Institution Mixte Mercier Tamar,,school,
18.535095,-72.4005978,,Point,782830843,Institution Mixte Toussaint Louverture,,school,
18.5352874,-72.4005986,,Point,782830865,Daddy's Little Spouse,,school,
18.5953336,-72.2855707,,Point,782999354,Ecole Nationale de la Cx des Missions,,school,
18.5860651,-72.2943731,,Point,782999401,Institution Classique Emmanuel Kant,,school,
18.5310738,-72.3797186,,Point,784257166,College Jean Louis,,school,
18.5368754,-72.39461150000001,,Point,784258292,Centre d'Etude Lumière,,school,
18.5385272,-72.3960508,,Point,784258297,College Mixte Antoine de St Exupery,,school,
18.5360595,-72.3932774,,Point,784258311,College Mere Salesienne,,school,
18.536448600000003,-72.3942672,,Point,784258318,College Edmond Laforest,,school,
18.5397594,-72.3959862,,Point,784258325,Collège Notre-Dame du Perpétuel Secours,,school,
18.5402564,-72.39494,,Point,784258330,Foundation Help to Haitian Community,,school,
18.5299702,-72.372649,,Point,784258368,Collège Vision de l'Excellence,,school,
18.5315365,-72.4200644,,Point,785389644,Institution Mixte le Bon Berger,,school,
18.5335206,-72.4196417,,Point,785389663,College Mixte le Train du Savoir,,school,
18.5326916,-72.4173544,,Point,785389675,Ecole Chrétienne de Sapotille,,school,
18.5310017,-72.4160446,,Point,785389717,Ecole Fondamentale Bien Aimé Cassis,,school,
18.5294111,-72.4135965,,Point,785389745,Institution Mixte Pere Farmese Louis Charles,,school,
18.5295111,-72.4120891,,Point,785389758,Centre d'Etude Lumière,,school,
18.5313602,-72.4150293,,Point,785389873,Institution Mixte Nouvelle Vie,,school,
18.5316844,-72.4150419,,Point,785389888,Lovely Kindergarten et Garderie,,school,
18.5321628,-72.4146636,,Point,785389916,College Mixte Martin Luther,,school,
18.5322529,-72.4144143,,Point,785389928,Temple de la Connaissance,,school,
18.5338325,-72.414844,,Point,785389944,Ecole mixte des Freres Unis,,school,
18.5381196,-72.419509,,Point,785389956,Institution Pain Quotidien,,school,
18.5339727,-72.4151608,,Point,785389977,Institution Pédagogique Moderne d'Haïti,,school,
18.5379159,-72.4136909,,Point,785390000,Petit Paradis de Mizou,,school,
18.5374135,-72.4119224,,Point,785390013,Institution Mixte Frère Prosper Joseph,,school,
18.5379587,-72.4115888,,Point,785390024,College la Berceuse,,school,
18.538209,-72.4137195,,Point,785390038,CECH,,school,
18.5401252,-72.4123891,,Point,786021852,Jardin de l'Innocence,,school,
18.5424599,-72.4200427,,Point,786021860,Centre Educatif de Carrefour,,school,
18.5446704,-72.414717,,Point,786021869,College Mixte Christ Carlentz,,school,
18.5437093,-72.41923960000001,,Point,786021874,College Dynamique de Laurie,,school,
18.5415517,-72.4146984,,Point,786021887,College Franco-Haitien,,school,
18.5414474,-72.4169891,,Point,786021893,College Coutilien Coutard,,school,
18.5386942,-72.4126497,,Point,786021899,Ecole Nationale Damocles Vieux,,school,
18.5387505,-72.4128424,,Point,786021924,Institution Mixte d'Enseignement de Carrefour,,school,
18.5405388,-72.4174309,,Point,786021947,Le Baume de Galaade,,school,
18.5492318,-72.4210857,,Point,786021954,Ecole Mixte le Pythagore,,school,
18.5397074,-72.4153287,,Point,786021959,Ecole Mixte Freres Edouard,,school,
18.5412857,-72.417405,,Point,786021965,Ecole Frere Ardouin,,school,
18.5518646,-72.4182669,,Point,786021971,College Mixte l'Universelle et Prefleuri,,school,
18.546045300000003,-72.4173559,,Point,786021976,Institution Joel Norelus,,school,
18.5397355,-72.4175201,,Point,786021997,Institution Mixte Nord Alexis,,school,
18.5387344,-72.4136635,,Point,786022010,College Mixte Euclide,,school,
18.5391759,-72.4120687,,Point,786022015,Le Reposoir des Enfants,,school,
18.5410769,-72.4163857,,Point,786022047,College Malcolm x,,school,
18.5424743,-72.4156805,,Point,786022053,College Mixte J. A. Mauberd Abraham,,school,
18.5398366,-72.4178254,,Point,786022061,Ecole Sainte Maria Goretti,,school,
18.5419432,-72.41804650000002,,Point,786022065,College Notre Dame du Perpetuel Secours,,school,
18.5714627,-72.2882954,,Point,788470780,College Louis Joseph Janvier,,school,
18.5433587,-72.4112774,,Point,790066914,Academy School,,school,
18.5433742,-72.41163410000001,,Point,790066915,Ecole Mixte Reve d'Enfant,,school,
18.5443948,-72.41093890000002,,Point,790066916,Mont Fleury,,school,
18.5422555,-72.4106565,,Point,790066917,College Moun Lakay,,school,
18.544611,-72.4103745,,Point,790066918,Mont Fleury Theodule,,school,
18.5525462,-72.4150494,,Point,790066919,Institution Mixte Eben Ezer,,school,
18.5457257,-72.4077798,,Point,790066920,Jardin Fleuri de Karon,,school,
18.5457588,-72.4077506,,Point,790066921,Collège de nos Frères Haïtiens,,school,
18.5478823,-72.4078089,,Point,790066923,Nouveau Collège de Formation Chrétienne,,school,
19.4690537,-72.6649816,,Point,791956271,Ecole Nationale de Dehonville,,school,
18.5379711,-72.3518196,,Point,795926592,Nouvelle école Mixte du Redempteur,,school,
18.5404467,-72.353825,,Point,795926598,Ecole Chrétienne Frères Cadet,,school,
18.5373574,-72.3500959,,Point,795926602,Science International School,,school,
18.5409999,-72.3490018,,Point,795926606,Ecole Professionnelle Cetemoh,,school,
18.5360223,-72.3517112,,Point,795926611,Les Petits Paons Bleus,,school,
18.5380671,-72.3514088,,Point,795926615,Eden's School,,school,
18.5363879,-72.3519904,,Point,795926619,College mixte Pasteur Soy Maxco,,school,
18.5394658,-72.3528671,,Point,795926623,Ecole Foyer Immaculee Conception,,school,
18.5354633,-72.3507759,,Point,795926627,College Mixte Primaire,,school,
18.5387617,-72.4226333,,Point,797439398,College Mixte Jean Jelaime,,school,
18.5406541,-72.4221972,,Point,797439402,College Mixte Canaan,,school,
18.537772,-72.42706290000001,,Point,797439404,College Mixte Jean Jelaime,,school,
18.5361392,-72.4282461,,Point,797439405,Institution Mixte l'Union,,school,
18.5396642,-72.4210167,,Point,797439406,College Univers Frère Raphael,,school,
18.540284200000002,-72.4231435,,Point,797439407,College Frère Desgraves,,school,
18.5364747,-72.4275177,,Point,797439408,O S E D I M,,school,
18.5383726,-72.4256401,,Point,797439409,Institution Mixte Juvénile,,school,
18.537504,-72.4278633,,Point,797439410,College Andre Paul,,school,
18.5369123,-72.4365061,,Point,797458421,Ecole Evangelique Adonai Sabaoth,,school,
18.5386325,-72.4376332,,Point,797458422,Institution Mixte des la Plus Tendre Enfance,,school,
18.5386738,-72.4364961,,Point,797458423,YOUDY,,school,
18.5384456,-72.4358845,,Point,797458424,Ecole Communautaire Claire Charles,,school,
18.5372933,-72.4332626,,Point,797458425,Houblonniere,,school,
18.5410228,-72.4383227,,Point,797458432,Monde Merveilleux d'Helene,,school,
18.541886,-72.4373612,,Point,797458435,Collège Mixte la Préférence,,school,
18.539785100000003,-72.43308150000001,,Point,797458440,Bugs Bunny,,school,
18.539735,-72.43347290000001,,Point,797458446,Codrington,,school,
18.5406256,-72.4333343,,Point,797458451,Delano Roosevelt,,school,
18.540805,-72.433942,,Point,797458455,Institution de la Nouvelle Jerusalem,,school,
18.5361197,-72.4317363,,Point,797458460,Ecole Coeur Jesus de Mariani,,school,
18.5364101,-72.4314217,,Point,797458464,Institution Mixte Ernst Etienne,,school,
18.5385501,-72.4306104,,Point,797458474,Ecole Mixte Communautaire de Mariani,,school,
18.5396767,-72.4322218,,Point,797458479,Etablissement Mixte Pere Eli Shamma,,school,
18.5173735,-72.3659859,,Point,802082100,INSTITUTION MIXTE SUPRA DE FRERE AUGUSTE,,school,
18.5189257,-72.3687898,,Point,802082112,Institution Mixte Lumière,,school,
18.5393137,-72.4552944,,Point,802305381,EEE,,school,
18.5438422,-72.4565711,,Point,802305424,Nirvana,,school,
18.5442084,-72.4553135,,Point,802305452,Institution Mixte Gais Ecoliers,,school,
18.5426784,-72.4460299,,Point,802358909,Institution mixte les Freres Heubreux,,school,
18.5394214,-72.4388157,,Point,802358916,College Jean Baptiste Lappe de Mariani,,school,
18.5396363,-72.4387604,,Point,802358954,College Soeur Rhodes Blaise,,school,
18.5234627,-72.3642851,,Point,802682657,College Inter Familial De Fontamara,,school,
18.5185813,-72.3608342,,Point,802682749,College Mixte Du Bon Berger,,school,
18.5434072,-72.3981912,,Point,802682808,Ecole La-Sol-Fa,,school,
18.521134500000002,-72.3610045,,Point,802682945,Ecole Mixte EMEDH,,school,
18.5259585,-72.357824,,Point,802682974,Institution Mixte Évangélique Pêcheur d'Homme,,school,
18.5447399,-72.3979933,,Point,802683100,Ecole Mixte El Shaddai,,school,
18.5288039,-72.3697517,,Point,803853778,College Nicolas Hipolyte,,school,
18.5287851,-72.3700019,,Point,803853811,College Classique de Fontamara,,school,
18.5220678,-72.3709113,,Point,803853851,Ecole Mixte Foi Apostolique Fonds Fort,,school,
18.5282516,-72.3695259,,Point,803854007,LE GRAND COLLEGE AUROR,,school,
18.5287582,-72.36814170000001,,Point,803854157,Institution Mixte Shekina,,school,
18.5290785,-72.3681808,,Point,803854958,College Petion Salvin,,school,
18.5257922,-72.3726392,,Point,803858939,École Joseph Etbertha.L Fall,,school,
18.5807434,-72.3300405,,Point,804224764,École Communautaire de Cite Gérard,,school,
18.5276629,-72.3693077,,Point,806830996,College Nouvelle et Professionnelle de Fontamara,,school,
18.54209,-72.4169254,,Point,806831015,Ecole le Nid de Melles Blancs,,school,
18.527621,-72.379357,,Point,806831020,Foyer des Petits Sages,,school,
18.5287688,-72.3697342,,Point,806831085,College le Voltairien,,school,
18.5443314,-72.4153698,,Point,806831101,La Planete des Petits,,school,
18.5409843,-72.3490007,,Point,806858085,CENTRE DE TECHNOLOGIE MODERNE D'HAITI,,school,
18.531381500000002,-72.3623553,,Point,806858132,ECOLE NORMALE DE LA RONDE JARDINIERE,,school,
18.536802,-72.3551411,,Point,806858159,Institution Mixte de Mahama,,school,
18.5323685,-72.3661224,,Point,806858352,Grand College Indigene,,school,
18.5332617,-72.3515043,,Point,806858405,Collège Christophe de Port-au-Prince,,school,
18.531339,-72.3660121,,Point,806858516,Ecole Mixte el Carius Lherisson,,school,
18.5428217,-72.42391,,Point,808366733,Sephas Academy,,school,
18.5445048,-72.4235069,,Point,808366750,Centre Académique Culturel d'Haïti,,school,
18.5440297,-72.4220463,,Point,808366770,Ecole Christian Haitian Out Reach,,school,
18.5464232,-72.423671,,Point,808366776,École Mixte Cœur Aimable,,school,
18.5414186,-72.4214256,,Point,808366795,College d’Education Moderne,,school,
18.5470919,-72.4206881,,Point,808366876,Institution Mixte les Petits de Saint Jean,,school,
18.4650367,-72.6530231,,Point,817526474,Ecole Chretienne de Barbeau,,school,
18.4873074,-72.63717730000002,,Point,817526508,Institution Mixte Beracca,,school,
18.4759943,-72.6536304,,Point,817526543,Ecole la Sainte Famille,,school,
18.4604763,-72.6423617,,Point,817526578,Institution Mixte Hispañola de Guinebeau,,school,
18.4873745,-72.6377268,,Point,817526594,Ecole Chretienne de Nolivos,,school,
18.495823,-72.601959,,Point,817922816,Institution Mixte Ambassadeur,,school,
18.4978607,-72.6013409,,Point,817922823,Institution Mixte Myroud,,school,
18.50413,-72.6173686,,Point,817922824,Petite Villa de Tatie Mona,,school,
18.5019679,-72.6108657,,Point,817922829,Institution Mixte Maranatha,,school,
18.513921800000002,-72.6149367,,Point,817922832,College mixte de l'Frere Chretienne,,school,
18.5128983,-72.6114669,,Point,817922834,College New Mission,,school,
18.5135889,-72.6140747,,Point,817922835,College Foyer Chretien,,school,
18.5140983,-72.6093501,,Point,817922844,Ecole New Mission de Sigueneau,,school,
18.515241100000004,-72.6066669,,Point,817922849,Ecole les Petites Antilles Sigueneau,,school,
18.5181471,-72.6071176,,Point,817922854,Ecole Communautaire du Bon Berger du Seigneur,,school,
18.4844323,-72.5890434,,Point,817922865,Institution Mixte Nao,,school,
18.4886144,-72.5885566,,Point,817922868,Centre d'Education Universelle,,school,
18.488205,-72.5889159,,Point,817922872,Ecole Fondamentale Mixte Henry Christophe,,school,
18.492519100000003,-72.5879406,,Point,817922874,Centre d'Etude Sainte Therese de l'Enfant Jesus,,school,
18.4964466,-72.5919847,,Point,817922881,Ecole Nationale Mixte de Darbone,,school,
18.4981229,-72.5895809,,Point,817922884,Institution Chretienne de l'Unite,,school,
18.5210596,-72.5964374,,Point,817922906,École Nationale de Guerin,,school,
18.5246111,-72.5851143,,Point,817922924,Ecole Chretienne Bienfaisance de Brache,,school,
18.5112713,-72.6307486,,Point,819007128,College Yves Desire,,school,
18.5082922,-72.6293563,,Point,819007168,College Quisqueya de Leogane,,school,
18.5110061,-72.6306225,,Point,819007190,College Yves Desir Gamaleil de Leogane,,school,
18.5103158,-72.6318636,,Point,819007221,Ecole Nationale Mixte de Leogane,,school,
18.5082226,-72.631801,,Point,819007239,Enfants de Miryan,,school,
18.5072349,-72.632811,,Point,819007265,Nouveau College Surin Eveillard,,school,
18.5105755,-72.62919040000001,,Point,819007290,Institution la Pyramide,,school,
18.5186294,-72.6316988,,Point,819015208,College Mixte Jerusalem de Belvald,,school,
18.5307556,-72.6284459,,Point,819015217,COLLEGE SAINT LUC,,school,
18.5126251,-72.6326902,,Point,819183778,College Emilke Saint Lot,,school,
18.5162884,-72.64328,,Point,819183907,Ecole Chretienne de Leogane,,school,
18.5166719,-72.6374783,,Point,819183944,Ecole Mixte Bon Samaritain,,school,
18.5090555,-72.6339886,,Point,819183997,Ecole Wesleyenne de Leogane,,school,
18.5107929,-72.6361439,,Point,819184031,College Mixte Jean de la Fontaine,,school,
18.5104349,-72.6299617,,Point,819184082,Fabre Nicolas Geffrard,,school,
18.5422804,-72.4115185,,Point,824554044,Ecole Mixte Cacique Henry,,school,
18.5336872,-72.5495999,,Point,824816009,Ecole Mixte d'Education Classique,,school,
18.5330859,-72.54292900000002,,Point,824816021,Ecole Mixte la Plenitude de Santo,,school,
18.5408321,-72.5507493,,Point,824816032,Centre Don Bosco Salesien de Gressier,,school,
18.5339755,-72.5383963,,Point,824816039,Institution Mixte Virginie Sampeur,,school,
18.537618800000004,-72.5286483,,Point,824816068,,,school,
18.5396277,-72.5293447,,Point,824816086,La Prairie d'Yslande,,school,
18.4565672,-72.62881710000002,,Point,824905136,Institution Mixte Baptiste Foyer Divin,,school,
18.4630741,-72.6334788,,Point,824906483,Les Petits Genies des Soins,,school,
18.4559243,-72.6279345,,Point,824906516,Institution Mixte Chretienne de la Terre Promise,,school,
18.4662549,-72.6333816,,Point,824906556,La Modestie Kindergaten,,school,
18.4559535,-72.6334213,,Point,824906631,Nouveau College Mixte de la Pleiade,,school,
18.4628912,-72.6330721,,Point,824906683,Ecole Nationale des Ressources,,school,
18.4522811,-72.6321221,,Point,824906835,Institution Mixte Freres Siloe,,school,
18.4553246,-72.632638,,Point,824925708,College Mixte le Visionnaire de Dufort,,school,
18.4765024,-72.6149885,,Point,824925794,Centre Education Classique de Loupe,,school,
18.4834917,-72.632001,,Point,824925816,La Belle Jeffyva Garderie Kindergaten,,school,
18.5424292,-72.5240857,,Point,825001046,Centre d'Etude Lumiere de Gressier,,school,
18.5431623,-72.5235359,,Point,825001057,Ecole Evangelique Chretienne,,school,
18.5417359,-72.4967089,,Point,825001090,College Etzer Vilaire,,school,
18.5261465,-72.6119586,,Point,826461891,Ecole Wesleyenne,,school,
18.5259297,-72.6113083,,Point,826461896,Institution mixte Agneau de Dieu,,school,
18.5514153,-72.6073361,,Point,826461932,Ecole Notre-Dame des Anges,,school,
18.5422206,-72.5792499,,Point,826461958,New Mission de Bire,,school,
18.555858800000003,-72.5760707,,Point,826461986,New Mission de la Sale,,school,
18.5618744,-72.5859165,,Point,826462012,NEW MISSION DE BORD DE MER,,school,
18.5208679,-72.5775462,,Point,826649070,Institution Scolaire les Abeilles d'Aspam de Mellier,,school,
18.5170008,-72.5743999,,Point,826649076,College Christ Roi de Grande Savanne,,school,
18.5227721,-72.5573557,,Point,826649093,College Universitaire de Christian Ville,,school,
18.5260271,-72.5812664,,Point,826649095,Ecole Bon Berger de Mellier,,school,
18.5233814,-72.5787044,,Point,826649097,Ecole Sacre Coeur de Mellier,,school,
18.5234853,-72.5548589,,Point,826649099,Nouveau College Antoine de la Garderie,,school,
18.5348169,-72.5649861,,Point,826649104,Ecole Secondaire Dezman Fleury,,school,
18.5373302,-72.5656636,,Point,826649105,Paradis des Petits,,school,
18.5357074,-72.560171,,Point,826649110,Ecole New Mission de Laferronay,,school,
18.5489167,-72.5596768,,Point,826649159,College Mixte par la Foi de Laferronay,,school,
18.5435835,-72.4838339,,Point,828069986,Ecole Fondamentale et Developpement,,school,
18.5448562,-72.466452,,Point,828070019,Institution mixte Aimé Césaire,,school,
18.5426406,-72.4593733,,Point,828070041,Centre Compassion,,school,
18.5447799,-72.4592599,,Point,828070062,Institution Mixte Foyer des Genies,,school,
18.537962,-72.4958273,,Point,830536809,Ecole Communaute de Saint Antoine,,school,
18.5389216,-72.4930106,,Point,830536816,College Mixte Frere Duverger,,school,
18.544355700000004,-72.4870736,,Point,830536831,Institution Clasique de Merger,,school,
18.5448562,-72.466452,,Point,830536876,Institution Mixte Aime Cesaire,,school,
18.540908,-72.460816,,Point,830536880,College Etoile de Sacre Coeur,,school,
18.5408735,-72.45935720000001,,Point,830536893,Centre Classique de Formation,,school,
18.544932,-72.4884131,,Point,830536927,Institution Mixte le Civilisateur,,school,
18.4179443,-72.936923,,Point,837852615,ECOLE COEUR DE JESUS,,school,
18.4170759,-72.9412058,,Point,837852644,INSTITUTION MIXTE LE RENOUVEAU,,school,
18.4197828,-72.9355954,,Point,837852654,INSTITUTION COMMUNAUTAIRE CHRETIENNE DE VIALET,,school,
18.4196563,-72.9360005,,Point,837852668,ECOLE/EGLISE SACRE COEUR DE VIALET,,school,
18.4113321,-72.9398783,,Point,837852685,Ecole Nationale Mixte Maurice David,,school,
18.4204629,-72.9307811,,Point,837852695,Lycee Roseline Vaval,,school,
18.4187245,-72.9432763,,Point,837852727,COLLEGE APOSTOLIQUE DE VIALET,,school,
18.4197345,-72.9359769,,Point,837852783,INSTITUTION MIXTE NOTRE DAME DU PERPETUEL SECOURS DE VIALET,,school,
18.4191078,-72.7853067,,Point,837857147,École Nationale de Thozin,500,school,
18.4246614,-72.7493864,,Point,837857152,Ecole Humanitarian Ministries,,school,
18.4255926,-72.7590109,,Point,837857174,École Notre-Dame Marie,,school,
18.4282627,-72.8549701,,Point,839004603,College Mixte Professionnelle,,school,
18.4308868,-72.8591721,,Point,839004612,Ecole Technique Laboratoire Medicale,,school,
18.4317902,-72.8574116,,Point,839004617,College Professionnelle de Petit-Goave,,school,
18.4344563,-72.858118,,Point,839004621,College Apostolique de Petit-Goave,,school,
18.4300472,-72.8524238,,Point,839004629,College Phillipien Guerrier,,school,
18.4278515,-72.8498821,,Point,839004634,Ecole Nationale,,school,
18.4367854,-72.8563872,,Point,839004642,Ecole Mixte Snoopy /Primaire,,school,
18.4360808,-72.8524602,,Point,839004647,College Mixte des Petits Delis Dubois,,school,
18.438796800000002,-72.8501119,,Point,839004660,College Cellius Monice,,school,
18.4307375,-72.8629393,,Point,839203472,College Peral Cassamajor,,school,
18.4328523,-72.8638467,,Point,839203499,Ecole des Soeurs,,school,
18.4331256,-72.863615,,Point,839203503,Ecole Nationale du Sacre Coeur,,school,
18.434116700000004,-72.863346,,Point,839203505,Collège Mixte Wesleyenne de Petit Goâve,,school,
18.4345912,-72.8621687,,Point,839203513,L'Oiseau Vert,,school,
18.4303516,-72.860827,,Point,839203521,College Jacques Stephen Alexis,,school,
18.4309277,-72.8592511,,Point,839203528,Ecole Mixte Armee du Salut,,school,
18.4316988,-72.8574191,,Point,839203537,Ecole Apostolique de Petit-Goave,,school,
18.4335437,-72.8598307,,Point,839203538,Le Jardin des Pompons,,school,
18.4347705,-72.8604128,,Point,839203544,L'Oiseau Vert,,school,
18.434407,-72.8581807,,Point,839203553,College le Nouveau Monde,,school,
18.4367745,-72.8578246,,Point,839203557,College Harry Brakeman,,school,
18.4203199,-72.8074382,,Point,843357160,College Mixte d'Enseignement Classique de Tapion,,school,
18.4291048,-72.8702957,,Point,843650458,College Pape Jean Paul II,,school,
18.4302145,-72.8663229,,Point,843650476,Legers Papillons Kinder,,school,
18.4271061,-72.76854250000001,,Point,843754386,École Nationale des Filles de Grand-Goâve,400,school,
18.4307919,-72.7702501,,Point,843754414,Lycee Phito Gracia,550,school,
18.4206363,-72.772635,,Point,843754437,Nouveau Collège Secondaire,,school,
18.4312715,-72.7719538,,Point,843754462,Ecole Baptiste Maranatha,,school,
18.4267499,-72.7689185,,Point,843754482,Nide Kindergarten,,school,
18.4305135,-72.7699873,,Point,843754496,Centre d'Études Secondaire Ernest Vaval,,school,
18.4205367,-72.7729321,,Point,843754517,École Mixte Servante Pour Tous,,school,
18.4284426,-72.7693595,,Point,843754524,Dens Kindergten et Garderie,,school,
18.4228884,-72.7692181,,Point,843754562,École Pédagogique Moderne de Grand-Goâve,,school,
18.4287755,-72.7701028,,Point,843754582,Centre Saint François d'Assise,,school,
18.4227775,-72.7703729,,Point,843754583,Centre d'Etudes Sosthenes Celestin de Grand-Goâve,,school,
18.4298534,-72.7682395,,Point,843754655,Ecole Institution de l'An 2000,,school,
18.4214435,-72.771662,,Point,843754704,Pompe électrique C13,,school,
18.4282264,-72.7677466,,Point,843754733,College Siloe,,school,
18.5687109,-72.2956783,,Point,845144970,Institution Mixte Saint Antoine de Padoue,,school,
18.5692535,-72.2966601,,Point,845144971,Grand College Nova,,school,
18.5710486,-72.299511,,Point,845144977,Les Gaies Hirondelles,,school,
18.5714549,-72.3001076,,Point,845144978,Ecole Wesleyenne de Mais Gate,,school,
18.5686873,-72.2947804,,Point,845144984,College Andre Gide,,school,
18.569635200000004,-72.2952403,,Point,845144985,Centre d'Education et de Formation Universelle,,school,
18.5719404,-72.2932129,,Point,845144987,LA REGINA,,school,
18.5659888,-72.296052,,Point,845975370,Ecole Pasteur Wesley Pierre,,school,
18.5656695,-72.294837,,Point,845975386,Ecole Sainte Anne,,school,
18.5660449,-72.2959588,,Point,845975429,Institution Frère Sainte Claire,,school,
18.5644766,-72.2969612,,Point,845975440,Ecole Saint Paul,,school,
18.5627891,-72.2919798,,Point,845975457,Kindergarten Joli Pop,,school,
18.598324,-72.2695798,,Point,846349058,Ecole mixte le Bon Pasteur,,school,
18.5981967,-72.2696483,,Point,846349076,Institut d'Enseignement Chretien,,school,
18.6030219,-72.2815681,,Point,846349114,College Adventiste de Canaan de carrefour Shada,,school,
18.6026972,-72.2807847,,Point,846349138,Institution mixte Solidarite Fraternite,,school,
18.6035172,-72.2794853,,Point,846349159,College Petit Coeur de Jesus,,school,
18.5976279,-72.2591375,,Point,846349262,Phare Institut de Formation Professionelle,,school,
18.5978289,-72.2594144,,Point,847114688,College Boirond Tonnerre,,school,
18.6044019,-72.2703432,,Point,847114690,Academie des Juniors,,school,
18.5976612,-72.2609203,,Point,847114706,Le Village des Gamins,,school,
18.6008788,-72.2790441,,Point,847114758,Nouveau College mixte Gospel Messager,,school,
18.6023552,-72.2814145,,Point,847114763,College Moderne frere Brutus,,school,
18.596544,-72.264091,,Point,847114776,Nouveau College de l'Etoile,,school,
18.5989267,-72.2840961,,Point,847114780,Ecole Union des Educateurs,,school,
18.6026974,-72.282124,,Point,847114824,College Mohandas Gandhi,,school,
18.5983606,-72.2635644,,Point,847114836,College mixte Notre Dame de Santo,,school,
18.6043025,-72.2769774,,Point,847114843,Centre d'Etude de Santo,,school,
18.632885,-72.266774,,Point,847842597,Institution Chretienne Mixte Frere Pierre,,school,
18.6282415,-72.2674814,,Point,847842615,Le P'tit Papillon Bleu,,school,
18.6281631,-72.2685768,,Point,847842639,Bobino Kindergarten,,school,
18.6433755,-72.258751,,Point,847842657,College Adelson Jean,,school,
18.6271576,-72.2621153,,Point,847842669,GRAND COLLEGE GALAXIE,,college,
18.629876200000005,-72.2664356,,Point,847842683,Institution mixte Yvon Alfred,,school,
18.6382851,-72.2640328,,Point,847842713,College Jehovah Shalom,,school,
18.6276615,-72.258628,,Point,847842723,Institution mixte Academie des Sages,,school,
18.6278976,-72.259409,,Point,847842776,Dreams of God,,school,
18.5676099,-72.2927628,,Point,847854154,Institution Mixte Frère Josias,,school,
18.5671332,-72.2916648,,Point,847854162,College Mixte des Frères St Jean Chrysostome,,school,
18.5657892,-72.2897136,,Point,847854173,College Mixte les Frères Grameliens,,school,
18.5657494,-72.2848088,,Point,847854197,Ecole Mixte Primaire Kindergarten,,school,
18.5683108,-72.2888725,,Point,847854202,College Claire de Lune,,school,
18.5682152,-72.2868613,,Point,847854242,College Albert Ambroise,,school,
18.5682132,-72.2871405,,Point,847854258,Abethel le Jardin du Petit Prince,,school,
18.5680688,-72.2864828,,Point,847854275,Les Petits Tresors du Mond,,school,
18.5678406,-72.28478770000001,,Point,847854289,École Jolie Coccinelle Garderie Kindergarten,,school,
18.5672432,-72.28367500000002,,Point,847854309,Collège Excelsior de Genesis,,school,
18.6068351,-72.2768925,,Point,848254571,Ecole Mixte du Saint Esprit,,school,
18.6105682,-72.2778252,,Point,848254575,Nouvelle Orientation,,school,
18.6066515,-72.2723255,,Point,848254578,Ecole Louverture Cleary,,school,
18.6064891,-72.2604311,,Point,848254586,Ecole Fondation J.B Ermilus,,school,
18.6111105,-72.2765095,,Point,848254590,Institution Mixte Le Nectar,,school,
18.6159637,-72.2743143,,Point,848254591,College Mixte de la competence,,school,
18.6160726,-72.2747085,,Point,848254595,Institution Joie des Petits,,school,
18.6158114,-72.2745578,,Point,848254598,Institution La Grenoble,,school,
18.612806800000005,-72.2724038,,Point,848254600,Theophile School,,school,
18.6128414,-72.2714596,,Point,848254602,College Claire Heureuse,,school,
18.6148719,-72.2733584,,Point,848254605,ECOLE MIXTE PHILADELPHIE,,school,
18.6173926,-72.2718013,,Point,848254609,Institution Flaunapiou,,school,
18.6216746,-72.2716419,,Point,848254611,Les Gais Lutins,,school,
18.6233121,-72.2680828,,Point,848254613,Ecole Mixte la Providence,,school,
18.6258252,-72.2693117,,Point,850940909,Institution mixte Antenor Firmin,,school,
18.628427900000002,-72.2674459,,Point,851220671,Le P'tit Papillon Bleu,,school,
18.6092251,-72.2870105,,Point,854664943,College les Sages Reunis,,school,
18.6127802,-72.2783223,,Point,854664946,Institution le Narcisse,,school,
18.6101056,-72.2919288,,Point,854664949,College mixte des Myosotis,,school,
18.6091128,-72.2881706,,Point,854664958,Institution mixte Rachel Milfort,,school,
18.6074653,-72.2861419,,Point,854664964,Tom and Jerry Kind,,school,
18.6138872,-72.2809214,,Point,854664968,College Mixte Bonne Semence,,school,
18.6002449,-72.2871894,,Point,854664971,Ecole Mixte Jesus Vivant,,school,
18.6100818,-72.2911059,,Point,854664977,Bryant Institut Bilingual Scool,,school,
18.6109134,-72.28612230000002,,Point,854664979,Institution Mixte la Jachere,,school,
18.6079377,-72.2853027,,Point,854664984,Instituion mixte Emmaus,,school,
18.6065756,-72.2861503,,Point,854664989,Union College Mixte de Shada,,school,
18.6149505,-72.2833225,,Point,854664991,iINSTITUTION NOUVELLE ETOILE,,school,
18.6100503,-72.2901706,,Point,854664998,Institution Mixte Petit Abeille,,school,
18.6103853,-72.2862891,,Point,854665001,Centre d'education de Remoth,,school,
18.6060488,-72.2812273,,Point,854665004,Manou Kindergaten,,school,
18.6099879,-72.2936685,,Point,854665009,Institution Makey,,school,
18.6095616,-72.2885044,,Point,854665013,Institution mixte la Nobless,,school,
18.6064398,-72.2817007,,Point,854665016,New American Institute,,school,
18.6017854,-72.2878319,,Point,854665020,Centre d'Etudes de la Bienfaisance,,school,
18.6153866,-72.2841525,,Point,854665021,Institution Mixte Freres Unis,,school,
18.5837332,-72.2374607,,Point,855149009,Le Petit Poucet,,school,
18.5841276,-72.2352285,,Point,855149021,College mixte de l'Univers,,school,
18.5790057,-72.2329516,,Point,855149028,College l'Aventure Semexant,,school,
18.5797508,-72.23185940000002,,Point,855149038,College Tabernacle de la Foi,,school,
18.581963,-72.2322105,,Point,855149062,Institution mixte Joseph Louittes,,school,
18.5822947,-72.2319738,,Point,855149084,Institution Chretienne d' Haiti,,school,
18.5822745,-72.2314895,,Point,855149098,Ecole mixte le Jacana,,school,
18.5823778,-72.2308256,,Point,855149107,Ecole Classique d'Arts et de Metiers,,school,
18.580543,-72.2286452,,Point,855149123,College Louis Joseph Janvier,,school,
18.5812526,-72.2261383,,Point,855149142,College mixte Dernier Louis Annophin,,school,
18.5817527,-72.2256514,,Point,855149154,Institution Leonard de Vinci,,school,
18.5819058,-72.2256794,,Point,855149166,Institution Oswald Durand,,school,
18.5829304,-72.225656,,Point,855149183,Institution mixte le bon Semeur,,school,
18.5840142,-72.2333819,,Point,855149204,Centre d' Education Moderne de la Croix des Bouquets,,school,
18.5835143,-72.2323808,,Point,855149212,Ecole Elohim,,school,
18.5851729,-72.2246964,,Point,855149225,Institution Cadet,,school,
18.5823758,-72.2220809,,Point,855149239,Centre Children International Lifeline d'Haiti,,school,
18.5814098,-72.2321116,,Point,855215684,Centre de Formation de la Pédagogie Moderne,,school,
18.5787822,-72.2358738,,Point,857413596,Institution Mixte Elim de Duval,,school,
18.5792606,-72.241138,,Point,857413646,Institution Mixte Elhim,,school,
18.5813806,-72.2425347,,Point,857413704,Michica Ecole Prescolaire,,school,
18.5721014,-72.2330126,,Point,857413751,Petit Jardin de Reve,,school,
18.5799171,-72.2434946,,Point,857413783,,,school,
18.5748719,-72.234137,,Point,857413796,Centre Educatif de Remi,,school,
18.5790092,-72.2358164,,Point,857413891,Jardin Fleurie de Jonide,,school,
18.5749311,-72.2325797,,Point,857413906,Ecole Mixte Evangelique de Sarepta (EMES),,school,
18.5750478,-72.2330458,,Point,857413940,Institut Angelique Primitive,,school,
18.5808872,-72.242578,,Point,857413982,Institution Mayouyou,,school,
18.5802455,-72.2363775,,Point,857414004,College mixte Etzer Vilair,,school,
18.5793758,-72.2361441,,Point,857414021,Le Patricien,,school,
18.5792882,-72.2440678,,Point,857414045,Ecole mixte le Bon Pasteur,,school,
18.6085893,-72.2181076,,Point,863222744,Institution Labrisseau,,school,
18.6235148,-72.2097551,,Point,863222749,Ecole Mixte Chateau d'Enfant,,school,
18.6191526,-72.2180772,,Point,863222755,Institution Coeur de Jesus,,school,
18.6060982,-72.2114608,,Point,863222759,Institution Mixte Bethleem de Rigaud,,school,
18.604490400000003,-72.2219171,,Point,863222769,Saint Luc,,school,
18.6017937,-72.2223337,,Point,863222774,Ecole Salem de la Mebea,,school,
18.6038915,-72.2308347,,Point,863222791,Institution Classique du Savoir,,school,
18.6159477,-72.2069272,,Point,863222797,Kay Sabine,,school,
18.6166968,-72.2409891,,Point,863854328,College Marie Reine Immaculee,,school,
18.622827,-72.240149,,Point,863854374,Ecole Communautaire Baptiste Libre,,school,
18.6228637,-72.2519996,,Point,863854390,Ecole mixte Exercice Nationale,,school,
18.6173496,-72.2492187,,Point,866989743,Ecole Bahá'íe Anís Zunúzí,,school,
18.6129917,-72.3092504,,Point,867022046,College Eugene de Mazenod,,school,
18.6128468,-72.3086934,,Point,867022054,Institution Mixte Ultime Semence,,school,
18.6160156,-72.3081555,,Point,867022071,Bougainvillee Kindergaten,,school,
18.6148556,-72.3049578,,Point,867022090,College les Philanthropes,,school,
18.618894600000004,-72.3026805,,Point,867022101,Institution Mixte Sainte Camille,,school,
18.6208352,-72.3053664,,Point,867022122,Ecole Mixte Bougainvillée de Sibertt,,school,
18.6148109,-72.2975527,,Point,867022147,Institut la Seve,,school,
18.6160156,-72.2972845,,Point,867022164,Reformed Theology Bible School,,school,
18.6280186,-72.29773430000002,,Point,867022188,Ecole professionelle de Sibert,,school,
18.629987,-72.290585,,Point,867022209,Ecole professionelle de Moleard,,school,
18.6195274,-72.2789366,,Point,867022229,College Jaqcues Nicolas Leger,,school,
18.6235245,-72.2877963,,Point,867022236,Institution mixte du Procem,,school,
18.625545,-72.2892061,,Point,867022260,Ecole et Clinique Eben-Ezer,,school,
18.6299994,-72.2859457,,Point,867022274,College mixte Imago Dei,,school,
18.6295625,-72.2791108,,Point,867022280,Ecole de St Marc,,school,
18.6297041,-72.2798207,,Point,867022294,Ecole Mixte St. Francois d’Assise de Bon Repos,,school,
18.629858,-72.2759339,,Point,867022303,Notre Dame D'Altagrace,,school,
18.6300966,-72.2705939,,Point,867022322,Pollen des Fleurs,,school,
18.6299133,-72.2701435,,Point,867022344,Children's Christian Academy,,school,
18.6311305,-72.272783,,Point,867022350,Ecole Mixte Christ-Roi,,school,
18.6329195,-72.2740669,,Point,867022375,College Mixte la Perfection,,school,
18.5913375,-72.2526303,,Point,867216331,College Universite CUPH,,school,
18.587699,-72.2237341,,Point,867253207,Institution Mixte Joseph Celuces,,school,
18.5952045,-72.2228361,,Point,867253935,Le Pavillon d'Enfant,,school,
18.5643987,-72.221267,,Point,869011609,College Mixte Estiverne,,school,
18.5501627,-72.1750855,,Point,869011636,Complexe Éducatif Jean Mary Desir,,school,
18.5600593,-72.1973203,,Point,869011681,Ecole Nationale de Guedon,,school,
18.5553213,-72.189546,,Point,869011755,Ecole Mixte Evangelique Coeur deJesus,,school,
18.560245,-72.1825556,,Point,869011830,Ecole Foye Culturel,,school,
18.5490472,-72.3275651,,Point,878854830,Institut mixte le pedagogue,,school,
18.5482146,-72.3328811,,Point,878854845,Les Enfants de Clair,,kindergarten,
18.5378339,-72.3280497,,Point,879369352,Maly'N,,kindergarten,
18.5354263,-72.330795,,Point,879369357,The International School,,school,
18.5353174,-72.3337488,,Point,879369366,Collège Yves Albert Boucher,,school,
18.5396231,-72.3313878,,Point,879369372,La Bambinerie,,kindergarten,
18.5362994,-72.3279603,,Point,879369383,Faculte Craan d'Haiti,,university,
18.536051,-72.3293981,,Point,879369385,Collège Mixte Lamartinière,,school,
18.5362825,-72.3304227,,Point,879369389,Collège Saint Louis Roi de France,,school,
18.5391547,-72.3331187,,Point,879369396,Collège Michel Moïse,,school,
18.5385216,-72.3281153,,Point,879369399,Centre de Formation Moderne,,school,
18.5375024,-72.3285913,,Point,879369405,Au Pipirite Chantant,,kindergarten,
18.53477,-72.3283593,,Point,879369414,Les P'tits Mousses,,school,
18.5349163,-72.3337978,,Point,879369419,Concord University,,university,
18.5356185,-72.3312538,,Point,879369432,Parc de Loisirs,,kindergarten,
18.5368919,-72.3337102,,Point,879369438,College Rene Descartes,,school,
18.5389584,-72.3332238,,Point,879369443,College Nelson Mandela,,school,
18.538614500000005,-72.3284697,,Point,879369446,Homo Sapiens Centre Classique,,school,
18.536297200000003,-72.3285556,,Point,879369450,Centre d'Étude,,school,
18.5412305,-72.3315164,,Point,879369465,Centre d'Etude Classique Albert Einstein,,school,
18.5374979,-72.3280156,,Point,879369469,Collège Louis Mercier,,school,
18.5420434,-72.3332106,,Point,879369477,Universite Anacaona,,university,
18.538483800000005,-72.3330127,,Point,879369485,College Isidor Jean Louis,,school,
18.5389895,-72.3307818,,Point,879369488,College Hermas Monnereau,,school,
18.5356403,-72.3287433,,Point,879369498,Collège Nicolas Leopernic,,school,
18.5362998,-72.3344448,,Point,879369511,Institution Mixte Sœur Hélène,,school,
18.5377302,-72.3316312,,Point,879369540,Lycee Firmin,,school,
18.5433944,-72.334165,,Point,879369550,Ecole Nationle Caroline Chauveau,,school,
18.5452112,-72.3299508,,Point,879386298,College Pierre Fermat,,school,
18.5447126,-72.3223178,,Point,879386319,Institution mixte Emile Jean Louis,,school,
18.5398415,-72.3268135,,Point,879386329,École Nationale Altagrace Charles Dube,,school,
18.5409434,-72.3298345,,Point,879386349,Petit As,,kindergarten,
18.540229,-72.3279781,,Point,879386360,Collège Fernand Prosper,,school,
18.5439802,-72.3217587,,Point,879386377,Rose Rouge,,kindergarten,
18.5401475,-72.3232234,,Point,879386406,École Nationale Argentine Bellegarde,,school,
18.5396307,-72.3268127,,Point,879386424,Le Papillon,,kindergarten,
18.5397372,-72.3291432,,Point,879386438,Lycee Marie Jeanne,,school,
18.5444798,-72.324352,,Point,879386457,Claire Marie de la Fine,,school,
18.5483178,-72.3365343,,Point,879413734,Covinet kindergarden,,kindergarten,
18.5478319,-72.337939,,Point,879413746,Les Papillons Légers,,kindergarten,
18.5469656,-72.335547,,Point,879413770,Institut Nursing d'Epraim,,school,
18.5457083,-72.3384908,,Point,879413776,Ecole Coeur de Jesus,,school,
18.5444748,-72.3340679,,Point,879413791,College Francois Capois,,school,
18.5477948,-72.3353012,,Point,879413812,Ecole Dominique Savio,,school,
18.5442866,-72.3310025,,Point,879413834,College Max Louis,,school,
18.547517800000005,-72.3353842,,Point,879413840,College mixte la Manne du matin,,school,
18.5470295,-72.3378189,,Point,879413862,Alpha Technique JB Damien,,school,
18.5439718,-72.3360421,,Point,879413880,École Nationale,,school,
18.5433479,-72.3317644,,Point,879413889,Marie Reine Immaculee,,school,
18.5442615,-72.3361981,,Point,879413902,École Frère André,,school,
18.5435141,-72.3327278,,Point,879413923,College Jaques Roumian,,school,
18.5481416,-72.3371491,,Point,879413938,Mikeli Kind,,kindergarten,
18.5441539,-72.3327097,,Point,879413955,College Daniel Mitterand Bethesda,,school,
18.5467677,-72.3356195,,Point,879413960,College Isidore Boisrond,,school,
18.5479439,-72.3365763,,Point,879413975,Collège Pierre Nicolas Wilfrid,,school,
18.5440442,-72.3332493,,Point,879414001,College Classique de Lalue,,school,
18.523132,-72.28066,,Point,880584280,Ecole Méthodiste de Frères,,school,
18.5637164,-72.2759989,,Point,880591962,Instituition Francoise et Rene de la Serre (IFRS),,school,
18.5315255,-72.338436,,Point,883252729,College Saint Georges,,school,
18.5313888,-72.3359149,,Point,883252789,International Academy,,university,
18.5314704,-72.3374064,,Point,883252844,Faculté des Sciences Appliquées,,university,
18.5310314,-72.3356785,,Point,883252906,Marie Carline,,kindergarten,
18.530772,-72.3378241,,Point,883252985,Solen's School,,school,
18.524055,-72.3396742,,Point,883253021,Lycée National de Carrefour-Feuilles,,school,
18.5316816,-72.3361239,,Point,883253077,Centre Universitaire Polytechnique,,university,
18.5305636,-72.3357317,,Point,883253116,Université Moderne d'Haiti,,university,
18.530489,-72.3347531,,Point,883253163,Université Américaine des Sciences Modernes d'Haïti,,university,
18.5317236,-72.3371107,,Point,883253190,École Sœurs Sainte Marie des Anges,,school,
18.524864,-72.3348576,,Point,883253353,École Communautaire CEMEAH,,school,
18.5313212,-72.3374163,,Point,883253413,Collège Wetsel Pierre Louis,,school,
18.5232065,-72.3399182,,Point,883253429,Institution Mixte Les Abeilles,,school,
18.532052,-72.3368608,,Point,883253538,Collège Claudin,,school,
18.530867,-72.3385557,,Point,883253696,Collège Leclerc Tertulien,,school,
18.5281271,-72.3388879,,Point,883253786,Centre d'Instruction Classique d'Haiti,,school,
18.527882,-72.3381409,,Point,883253867,Rose Enfantine,,school,
18.5313242,-72.3384677,,Point,883253916,Institution Claire de Lune,,school,
18.530210600000004,-72.3365624,,Point,883253950,École Nouvelle Vision Éducative d'Haiti,,school,
18.5302734,-72.3401401,,Point,883253983,École Nationale République du Paraguay,,school,
18.5340307,-72.3276108,,Point,883450352,Collège Nouvelle Lune,,school,
18.5325368,-72.3337099,,Point,883450362,Collège Mixte Adonaï,,school,
18.5307405,-72.3332426,,Point,883450377,Université de technologie d'Haïti,,university,
18.5303769,-72.3344402,,Point,883450387,Université Polyvalente d'Haïti,,university,
18.5360623,-72.3316225,,Point,883450415,Collège Philadelphie,,school,
18.5352859,-72.33191410000002,,Point,883450420,Institut George Marc,,school,
18.536375,-72.3328247,,Point,883450424,Joly Kindergarden,,kindergarten,
18.5371818,-72.315929,,Point,892483157,La Petite Ourse,,kindergarten,
18.5217517,-72.3283954,,Point,899265790,École de Grossah,,school,
18.5397936,-72.3388371,,Point,899529782,Faculté de droit,,university,
18.5373879,-72.3357613,,Point,899529808,Lycée du Centenaire,,school,
18.5334864,-72.33941630000001,,Point,899529827,Collège Adventiste de Vertière,,school,
18.5390394,-72.338623,,Point,899529848,Collège Immaculée de Conception,,school,
18.532437,-72.3385312,,Point,899529856,Collège Cœurs-Unis,,school,
18.5349217,-72.3397665,,Point,899529874,École Municipale de Carl Brouard,,school,
18.5320597,-72.3357411,,Point,899529897,Collège Éducatif d'Haïti,,school,
18.5365182,-72.3353768,,Point,899529920,Jardin Fleuri de Yolaine,,kindergarten,
18.5348329,-72.334656,,Point,899529944,College Notre Dame de Lourde,,school,
18.5352948,-72.3372789,,Point,899529955,Institution Mixte Montesquieu,,school,
18.5304195,-72.32431300000002,,Point,901011210,Le Coin de Domi,,kindergarten,
18.5332746,-72.3279596,,Point,901011237,Institut Pere de Montfort,,school,
18.5237401,-72.3413141,,Point,902735399,Institution Mixte Pau Paul,,school,
18.5243519,-72.3430645,,Point,902735400,Ecole Mixte Capois,,school,
18.5245017,-72.340863,,Point,902735404,Jaden Lakay,,school,
18.5275307,-72.3412884,,Point,902735406,Institution Mixte Les Papillons,,school,
18.5228088,-72.3422812,,Point,902735409,Institution Mixte de Carrefour-Feuille,,school,
18.5266697,-72.3467471,,Point,910968203,Collège Thales Milet,,school,
18.5292282,-72.3477619,,Point,910968207,Notre Dame du Mont Carmel,,school,
18.5296368,-72.3466203,,Point,910968231,Institution Mixte Racine,,school,
18.5305394,-72.3466563,,Point,910968276,Institution Mixte Reginald Lysias,,school,
18.5307472,-72.3458218,,Point,910968291,Institution Mixte le Messager,,school,
18.5314424,-72.3464224,,Point,910968297,Collège Mixte Henry 1er,,school,
18.5321166,-72.3472789,,Point,910968317,Collège des Sciences Modernes,,school,
18.5275162,-72.3411079,,Point,910968348,Institution les Papillons de Freres Andre,,school,
18.5277927,-72.3412533,,Point,910968362,College Mixte Freres Unis,,school,
18.5279232,-72.341932,,Point,910968378,Institution Mixte Sopine,,school,
18.5299797,-72.3419132,,Point,910968447,Institution Mixte André Malreau,,school,
18.531281,-72.3442712,,Point,910968457,École Pentecostale Unité,,school,
18.5563782,-72.2683265,,Point,911915811,Les Petits Chercheurs Trinitaires,,school,
18.5586184,-72.268088,,Point,911915823,College Mixte Hummno de Caradeux,,school,
18.5564146,-72.2669041,,Point,911915839,Ecole Mixte Baptiste,,school,
18.5570897,-72.2681653,,Point,911915846,College Mixte Ropheka,,school,
18.5329692,-72.2481615,,Point,913911502,Tchathci jardin d'enfants,,kindergarten,
18.5293796,-72.2452434,,Point,913911594,Centre de Formation Pour la Vie,,college,
18.5315015,-72.2420142,,Point,913911631,Institution Mixtes Yolie,,college,
18.5349591,-72.2464333,,Point,913948811,La Joie des Enfants Kindergarten,,kindergarten,
18.556842,-72.2739348,,Point,914755404,Académie de l'Enfant Jésus,,school,
18.543380400000004,-72.2702586,,Point,914760791,College mixte Frere Don Fred,,college,
18.5487452,-72.2717279,,Point,914760825,Pipirite Kindergarten,,kindergarten,
18.5209898,-72.2231481,,Point,914940330,Ecole Mont des Oliviers,,school,
18.5183263,-72.21826420000001,,Point,914940348,Institution mixte Maranatha,,school,
18.5199233,-72.2210469,,Point,914940364,Institution soeur Lucie de Fatima,,school,
18.5488702,-72.2674381,,Point,915616628,I M J A KIN - PRIM,,kindergarten,
18.5499082,-72.2775774,,Point,915758181,Adreen Christian School Fondation,,school,
18.5521197,-72.2809728,,Point,915758216,College mixte Notre Dame de la Paix,,school,
18.5561848,-72.28194780000001,,Point,919614577,Institution mixte la Belle Lune,,school,
18.5618967,-72.2762578,,Point,919614578,Collège LA COLOMBE,,college,
18.5616575,-72.2791558,,Point,919614579,Centre d`Enseignement Mixte Job N.Jonka,,college,
18.5584475,-72.2796718,,Point,919614580,SHAMINOUKA,,kindergarten,
18.5624558,-72.2757507,,Point,919614581,COMISS Collège Mixte Saint Laurent Samedi,,college,
18.5587706,-72.2771656,,Point,919614583,Ecole Mixte Frère Nau,,school,
18.558541,-72.2832423,,Point,919614585,Jardin Dore de Chrismene,,kindergarten,
18.558695900000004,-72.2776952,,Point,919614586,College du Village,,school,
18.5299627,-72.3520539,,Point,919822317,École Communautaire (SODO/O.VJBOL),,school,
18.529669600000002,-72.3480379,,Point,919822349,Berceau d'Enfant,,kindergarten,
18.5566947,-72.2956642,,Point,922748568,College Frere l'Amerique,,college,
18.5565209,-72.2962914,,Point,922748597,Institution Mixte la Grande Vision,,school,
18.5578491,-72.2991495,,Point,922748599,Institution mixte Adeg,,school,
18.5544094,-72.2936604,,Point,922748640,Institution mixte Frere Mondesir,,school,
18.5587072,-72.299586,,Point,922748650,Collège Logos,,school,
18.5535294,-72.2990973,,Point,922748655,Le Jadin de Maritou,,kindergarten,
18.551657000000002,-72.2952945,,Point,922748670,College mixte Milien Robes Pirre,,school,
18.5577634,-72.298785,,Point,922748695,Collège Mixte Ampère,,school,
18.536188,-72.2862571,,Point,922890788,Filsecam jardin d'enfant,,school,
18.5405341,-72.2808986,,Point,922890808,College Nobert Valcin,,school,
18.5545028,-72.2814466,,Point,922908697,Institution des Philosophes Reunis,,college,
18.5579669,-72.285515,,Point,922908828,College mixte Frere Maxime,,school,
18.5590776,-72.2885711,,Point,922908921,Centre d'Etudes Mixte d'Haiti,,school,
18.5535725,-72.2793276,,Point,922908994,College mixte Solange Aurelien,,school,
18.5492615,-72.2814228,,Point,923286068,Ecole Chretienne de la Communaute,,school,
18.546222,-72.2857576,,Point,923286099,Mon Premier Mot Garderie,,school,
18.5462752,-72.2861126,,Point,923286133,Foyer des Petits Mabeen,,kindergarten,
18.5500756,-72.3028282,,Point,924209909,Greater Works Academy - Collège de l'Excellence,,school,
18.5493093,-72.3040524,,Point,924209910,Jardin de Fleurs de Muguet,,school,
18.5467225,-72.29981390000002,,Point,924209919,College Michel de Montaigne,,school,
18.5486769,-72.3035815,,Point,924209926,Wonderful Institute,,school,
18.5485094,-72.3035298,,Point,924209928,Sica Nursing School,,school,
18.550291400000003,-72.2993253,,Point,924209935,Institut Chrétien de Formation des Cadres Techniques et Professionnels,,school,
18.5501147,-72.2985969,,Point,924209939,Institution mixte Jean Jacques Rousseau,,school,
18.5502201,-72.3035381,,Point,924209944,Collège Classique et Culturel de Delmas,,school,
18.549510600000005,-72.2984718,,Point,924209953,"College Jude D,Aout",,school,
18.5512941,-72.2985387,,Point,924209962,Institution mixte John Knox,,school,
18.5473328,-72.3016065,,Point,924209975,Institution Mixte la Gajoyave,,kindergarten,
18.5469154,-72.2999274,,Point,924209977,Laurier d'Or,,kindergarten,
18.5331905,-72.2881776,,Point,928470501,College les Freres St-Cyr de Petion-Ville,,school,
18.5301645,-72.2842894,,Point,928470508,Institution mixte Louis Jeanty,,school,
18.5300097,-72.2819662,,Point,928470526,College pedagogique de Bertholet,,school,
18.5388097,-72.304916,,Point,928591166,Collège Hispagnola,,school,
18.5411723,-72.2950332,,Point,928591263,College de l'Esperance,,school,
18.5431199,-72.3019602,,Point,928591378,College Frere Mathieu,,school,
18.5371396,-72.2995767,,Point,928591460,Institution mixte Jean le Baptiste,,school,
18.540951,-72.2945852,,Point,928591542,Centre de Formation Classique d'Haiti,,school,
18.5403438,-72.3027062,,Point,928591770,Institution mixte de la Fontaine,,college,
18.5248076,-72.2827579,,Point,930351254,College d'enseignement moderne de Petion Ville,,school,
18.5205744,-72.2832316,,Point,930351263,Ecole Baptiste Conservatrice de Pétion-Ville,,school,
18.5275143,-72.2827326,,Point,930351282,Grand college classique de Petion Ville,,school,
18.5253311,-72.2827683,,Point,930351306,College academique de Socrate,,school,
18.5288713,-72.2796926,,Point,930351317,Institution mixte les Freres Tinord,,school,
18.5228859,-72.2827434,,Point,930351337,College mixte Georges Lagroue,,school,
18.5261099,-72.2822934,,Point,930351357,College Henry Christophe,,school,
18.52885,-72.2795261,,Point,930351371,Ecole mixte la foi d'Abraham,,school,
18.5274839,-72.2823841,,Point,930351400,Le Gai Ourson,,school,
18.5268792,-72.2852124,,Point,930386000,,,school,
18.5265389,-72.2852713,,Point,930386012,Institution mixte le Chaboultou,,kindergarten,
18.5276395,-72.2860256,,Point,930386019,Institution Mixte Foyer Chretien,,school,
18.5266656,-72.284798,,Point,930386027,Les Petits Genies Servantes,,school,
18.5398402,-72.2948666,,Point,930658500,Centre Pedagogique Orions,,school,
18.5441808,-72.2978265,,Point,930658511,Nouveau Semi Lycee Francais,,school,
18.5432522,-72.2952521,,Point,930658516,Ecole Leila Lherisson,,school,
18.541811,-72.2974652,,Point,930658529,College Oecumenique International,,school,
18.5446823,-72.29888960000001,,Point,930658537,College Sainvilus Leon,,school,
18.5405216,-72.2948316,,Point,930658554,CEFA,,kindergarten,
18.5443137,-72.2980992,,Point,930658560,Piou Piou Univers des petits,,school,
18.5437107,-72.2977882,,Point,930658580,Ecole Baptiste Conservatrice de Pétion-Ville,,school,
18.5399821,-72.295073,,Point,930658583,L'Atelier des Petits Jardin d'Enfants,,school,
18.5416431,-72.2977208,,Point,930658598,College Jn Marie Joseph,,school,
18.5429447,-72.2953199,,Point,930658600,Collège Jean Racine,,school,
18.5437282,-72.2988296,,Point,930658607,College Ruben Leconte,,school,
18.5482376,-72.2959781,,Point,930658626,Institution Claparade Edouard,,school,
18.5240104,-72.2814279,,Point,930878278,Ecole normale de Frere,,college,
18.5265689,-72.2804729,,Point,930878353,,,school,
18.523755200000004,-72.2792596,,Point,930878426,College Constant Jean Marie Leonard,,school,
18.5189365,-72.2850905,,Point,932023545,College mixte Rolin Mieze,,school,
18.5289295,-72.2917593,,Point,932023549,Institution mixte St Augustin,,school,
18.5211603,-72.2841281,,Point,932023557,College Peztalozzi Johann,,school,
18.5252143,-72.2922436,,Point,932023567,Institution mixte de Sopudep,,school,
18.5200743,-72.284101,,Point,932023572,College Rhema,,school,
18.524839,-72.2868348,,Point,932023580,Institution mixte classique Siloe,,school,
18.5235854,-72.2848327,,Point,932023587,College Boisrond Tonerre,,school,
18.5295813,-72.2912675,,Point,932023603,Le Petit Valentin,,kindergarten,
18.5243363,-72.2860963,,Point,932023610,Institution mixte Marie Louise Trichet,,school,
18.5536083,-72.339127,,Point,933620987,Ecole mixte Celigny Ardouin,,school,
18.5508026,-72.3372254,,Point,933621007,Institution Mixte Bambinou,,school,
18.5513852,-72.3381205,,Point,933621015,Institution d'Enseignement de la Creche,,school,
18.5509136,-72.336992,,Point,933621055,COMPLEXE EDCATIF EDUCATIF DU BEL AIR,,school,
18.5516418,-72.3375739,,Point,933621075,Ecole Notre Dame du Perpetuel Secours,,school,
18.551698,-72.3366015,,Point,933621086,Ecole Dumarsais Estime,,school,
18.5556864,-72.3409658,,Point,933621107,ECOLE CLASSIQUE UNIVERSELLE,,school,
18.5424727,-72.2804952,,Point,933805270,College des Oliviers,,school,
18.5643111,-72.3191145,,Point,938618656,Grand College Dix Hommes Noirs,,school,
18.56484,-72.3159198,,Point,938618658,College mixte Frere Gerard,,school,
18.5847881,-72.3013476,,Point,938728161,,,school,
18.5848153,-72.3012857,,Point,938728484,,,school,
18.5849536,-72.3015245,,Point,938728899,,,kindergarten,
18.5847086,-72.3015281,,Point,938729004,,,school,
18.5537447,-72.3254555,,Point,938763357,Kindergarten des Cites de Jaqueline,,kindergarten,
18.5536341,-72.3217414,,Point,938763402,École Notre Dame de l'Assomption,,kindergarten,
18.5546568,-72.3218172,,Point,938763412,Collège Mixte Francois Etzer,,college,
18.5548264,-72.3189556,,Point,938763422,Collège Alexis Clairaut,,college,
18.5553268,-72.3165834,,Point,938763428,PARADIS DES PETITS,,kindergarten,
18.5562664,-72.3213367,,Point,938763432,Petit Poucet,,kindergarten,
18.5566917,-72.32063280000001,,Point,938763440,L'Oiseau Bleu,,kindergarten,
18.5572584,-72.319552,,Point,938763441,Marie Elene,,kindergarten,
18.5605075,-72.3151479,,Point,938779200,College mixte la Renaissance,,school,
18.5596792,-72.3174263,,Point,938779220,College Lavoisier de Romelus,,school,
18.5538748,-72.3114199,,Point,938779256,Jennifer Kinder,,kindergarten,
18.5593534,-72.3156029,,Point,938779330,Institution mixte Zephirin Nahum,,school,
18.554811,-72.3126118,,Point,938779370,Collège mixte Jean Marck Alexis,,school,
18.5573361,-72.3144713,,Point,938779406,Centre d'Education Nouvelle,,school,
18.5634577,-72.3002214,,Point,939523586,D Jemimah kindergarten,,kindergarten,
18.563086,-72.3059126,,Point,939523616,Christian Light Ministries,,school,
18.5607595,-72.3027269,,Point,939523648,ecole mixte eben ezer,,school,
18.5592836,-72.3030127,,Point,939523661,Mondy Kindergarten,,kindergarten,
18.5665588,-72.299999,,Point,939523685,Wohca Kindergarten,,kindergarten,
18.5661938,-72.3003873,,Point,939523707,College Jean Perrin,,school,
18.564436500000003,-72.2993053,,Point,939523725,Ecole mixte de la nouvelle Jerusalem,,school,
18.5619992,-72.3037121,,Point,939523737,le coin des petits,,school,
18.5659348,-72.306794,,Point,939523764,College Saint Louis Marie de Monfort,,school,
18.5611616,-72.3036812,,Point,939523774,Institution mixte Sainte Justine,,school,
18.5586268,-72.3014908,,Point,939523782,École Municipale Pierre Labitrie,,school,
18.5598801,-72.30051,,Point,939523808,Ecole Methodiste Freres Unis,,school,
18.5556603,-72.286305,,Point,939668018,Michou Kindergarten,,kindergarten,
18.5541329,-72.2868124,,Point,939668163,College Bethesda Lherisson,,school,
18.549615,-72.2874236,,Point,939668424,Jardin de la Joie,,kindergarten,
18.5636323,-72.3128317,,Point,940360632,College Academie Chretienne des Enfants,,school,
18.5536702,-72.3275413,,Point,941793818,ecole mixte assemblee de Dieu,,school,
18.5558476,-72.3293685,,Point,941793822,college classique vision caraibeen,,school,
18.5557119,-72.3286293,,Point,941793830,ecole nationale republique dominicaine,,school,
18.5649516,-72.324427,,Point,945225667,La Bergerie,,school,
18.5408991,-72.3433407,,Point,945354419,École Nationale Don de Dumerlan Dumerlin,,school,
18.542073,-72.3437717,,Point,945354468,Lycée Toussaint Louverture,,school,
18.5454892,-72.3420897,,Point,945354532,CFEF,,school,
18.5390043,-72.3443694,,Point,945354597,Institution mixte Saint Martin,,college,
18.5446319,-72.342011,,Point,945354599,Nouveau Collège Bird,,school,
18.5426935,-72.3420555,,Point,945354601,Institution la Belle Semence,,college,
18.5376115,-72.3447454,,Point,945354602,Institut d'Enseignement Chrétien de Siloe,,school,
18.5592899,-72.3234914,,Point,946041288,Collège Peofessionnel,,school,
18.5597779,-72.32198,,Point,946041294,Centre de Formation Chrétienne,,school,
18.5598989,-72.3194953,,Point,946041296,Institution Renovation de l'Education,,school,
18.5620127,-72.3218667,,Point,946041300,College Rigaud Antoine,,school,
18.563635400000003,-72.320985,,Point,946041304,Paradis des Enfants,,kindergarten,
18.5639259,-72.3213882,,Point,946041307,Collège mixte Frere Louisdor Cinea,,school,
18.5625002,-72.3202184,,Point,946041318,École Classique l'Avenir,,school,
18.562458,-72.3202345,,Point,946041329,L'île aux Papillons,,kindergarten,
18.5216878,-72.2619136,,Point,946102335,College Henry Christophe,,school,
18.5257806,-72.2620665,,Point,946102342,Collège Waldorf,,school,
18.5242976,-72.2603065,,Point,946102355,Ecole nationale de Frères,,school,
18.5209893,-72.2505942,,Point,947019194,Institution mixte moderne des Freres Chretiens,,school,
18.5200152,-72.2510603,,Point,947195900,Grand college Hugo Paul des Freres,,school,
18.5176119,-72.2357177,,Point,947196079,Ecole Evangelique Baptiste de Pernier,,school,
18.5627826,-72.3133103,,Point,948125558,,,kindergarten,
18.5632082,-72.3337246,,Point,948178252,,,school,
18.5627125,-72.3365082,,Point,948179044,,,school,
18.5945664,-72.2639301,,Point,948322102,ecole cominautaire de butte boyer,,kindergarten,
18.5278249,-72.2731614,,Point,948479091,College Mixte Yves Saintil,,school,
18.5276283,-72.2730156,,Point,948479132,College Julien Raymond,,school,
18.5255842,-72.27098200000002,,Point,948479142,College Constantin la Foret,,school,
18.535302,-72.4062369,,Point,948599544,,,school,
18.5123921,-72.2876305,,Point,956093174,Petit Monde,,kindergarten,
18.5149929,-72.2905674,,Point,956093184,Collège Jean Joseph Perdriel,,school,
18.5159926,-72.2902604,,Point,956093188,Michou et Dadou,,kindergarten,
18.5165159,-72.2908995,,Point,956093213,École Nationale République du Guatemala,,school,
18.5138528,-72.2891859,,Point,956093217,Arc-en-Ciel,,kindergarten,
18.5125416,-72.2906984,,Point,956093276,Collège Moderne Duval,,college,
18.5112683,-72.2870373,,Point,956093298,Lycée Pétion-Ville,,school,
18.5161276,-72.2922043,,Point,956093317,École Sainte Thérèse,,school,
18.5154355,-72.2890366,,Point,956093328,Les Libéllules,,kindergarten,
18.5115561,-72.287368,,Point,956093335,Anne Marie Cavre,,school,
18.5115765,-72.2896318,,Point,956093347,Kindergarten de Pétion Ville,,kindergarten,
18.5103875,-72.2840292,,Point,957091466,Notre Dame du Rosaire,,college,
18.5146866,-72.2822585,,Point,957091469,Centre Classique de don Bosco,,college,
18.565062,-72.3209778,,Point,957323845,,,school,
18.4914102,-72.2890434,,Point,958268113,Centre Pédagogique de Montagne Noire,,school,
18.5603847,-72.3263008,,Point,958296189,,,school,
18.5602773,-72.3260403,,Point,958296695,,,school,
18.5105944,-72.293847,,Point,958364814,College mixte Tedes,,school,
18.5096358,-72.2940259,,Point,958364832,Ecole communautaire mixte des Bons Samaritains,,school,
18.5089245,-72.2938266,,Point,958364849,Ecole communautaire de Jalousie,,school,
18.5094463,-72.2915147,,Point,958364866,Institution la Franchise,,school,
18.504472,-72.2913384,,Point,958364873,Institution Adrien Massard,,school,
18.5025535,-72.2908448,,Point,958364903,Institution Mixte Ismael de Newton,,school,
18.5583487,-72.3100401,,Point,958502854,Institution mixte Jean Marie Baptiste,,school,
18.5555232,-72.3109356,,Point,958502867,TI MALICE/KIND,,kindergarten,
18.5552354,-72.3096126,,Point,958502880,PINOCHIO/KIND,,kindergarten,
18.5573399,-72.3096827,,Point,958502895,FRIMOUSSE/KIND,,kindergarten,
18.5551013,-72.3083633,,Point,958502906,Jehovah Academie International d'Haiti,,school,
18.5531045,-72.3103588,,Point,958502909,Institution des Frères de Fatima,,school,
18.5576501,-72.3106814,,Point,958502914,college mixte jean baptiste chavannes,,school,
18.55076,-72.3072234,,Point,958502921,College Gerard Armand Joseph,,school,
18.5529659,-72.3089107,,Point,958502933,Institution Arnoux Fleurimond,,school,
18.5512914,-72.3075017,,Point,958502942,College Nobert Phillipe,,school,
18.556332,-72.3049798,,Point,958502952,Institution classique Armand G. Telcinord,,school,
18.5521527,-72.3110731,,Point,958502955,Centre d'étude Toussaint Louverture,,school,
18.5063971,-72.630477,,Point,960476644,ACT Alliance School,,school,
18.5357773,-72.2705373,,Point,960480338,Grand college moderne de Puits Blain,,college,
18.5117629,-72.2742042,,Point,960492955,Instiution Mixte Bethsaleel de Girardeau,,college,
18.512014500000003,-72.2769166,,Point,960492960,Ecole Bouquet Garni,,college,
18.5181706,-72.277637,,Point,960492968,College classique don Bosco,,college,
18.5135765,-72.2745092,,Point,960492976,Collège Mixte de Péguyville,,school,
18.5186186,-72.2759602,,Point,960492977,Oratoire St. Charbel,,college,
18.5549294,-72.3082588,,Point,960500104,College Frère Decoste,,school,
18.5546249,-72.3087424,,Point,960500112,École Supérieure d'Infirmière Jeanne Mance du Canada,,college,
18.5563758,-72.3097942,,Point,960500116,college le reformateur,,school,
18.5604772,-72.3083837,,Point,960500163,Centre d'Etude Classique Frere Freud,,school,
18.5761168,-72.3306204,,Point,965235394,College Fozat,,school,
18.5724579,-72.3260741,,Point,965235405,École Mite Aide aux Enfants,,school,
18.5796409,-72.3304717,,Point,965235411,Centre Professionnel Saint Jean Bosco,,school,
18.5744314,-72.3258948,,Point,965235416,Ecole Mixte Foi D'Abraham,9 salles,school,
18.5741717,-72.32830340000001,,Point,965235439,College mixte Marie Reine,,school,
18.5768801,-72.3292977,,Point,965235475,Institution Mixte Shalom,,school,
18.5726486,-72.3262269,,Point,965235477,Nouveau college Mixte Emmanuel,,school,
18.572297,-72.3267572,,Point,965235485,Ecole Mixte de la Progres,,school,
18.5810501,-72.3322623,,Point,965235492,Ecole mixte Vaillants Soldats,,school,
18.5756249,-72.3279435,,Point,965235515,Collège Lenormalien de la Cité,,school,
18.5810409,-72.339249,,Point,965235523,Ecole Mixte Action Chretienne,,school,
18.5772427,-72.33242320000001,,Point,965235528,École Mixte de Sainte Thérèse d'Avi la,850,school,
18.5730303,-72.326754,,Point,965235542,École Mixte de la Nouvelle Jérusalem,,school,
18.578378,-72.3330921,,Point,965235548,École Mixte Saint Esprit,,school,
18.580552600000004,-72.3341455,,Point,965235564,Ecole Mixte tre Dame Perpetuelle,,school,
18.5734958,-72.3278667,,Point,965235577,Institution Mixte Courtoisie Eben_Ezer,,school,
18.5732938,-72.3263811,,Point,965235595,Collège Mixte la Nouveauté,,school,
18.5814979,-72.3397217,,Point,965235604,Ecole Mixte Elde Lumiere,,school,
18.581472,-72.32764960000002,,Point,965250898,La maison de l'Esperance de Drouillard,,school,
18.5742531,-72.3290994,,Point,965250906,Ecole coutoisie ebenezer (bonberger),,school,
18.6048011,-72.3312575,,Point,965250908,Intitution Mixte la Gene,,school,
18.581550200000002,-72.3018862,,Point,965250918,Institution mixte Foyer Divin,,school,
18.5983452,-72.3357028,,Point,965250919,College la Ronde Miracle,,school,
18.5654418,-72.3467314,,Point,965250920,Ecole mixte joie et sourie d' enfants,,school,
18.5922424,-72.3058924,,Point,965250929,Collège mixte Jn Jc Dessalines,,school,
18.5851491,-72.3042111,,Point,965250943,Institution mixte Jn Pierre,,school,
18.5832797,-72.3094143,,Point,965250947,L'enfant Jesus Kindergaden,,school,
18.6039248,-72.3073142,,Point,965250963,Ecole Communautaire de Larousse,,school,
18.614535,-72.31653590000002,,Point,965250973,Papillon Léger de Fourgie,,kindergarten,
18.5982101,-72.3348474,,Point,965251003,Ecole Presbiteral Notre Dame deLourde,,school,
18.5912573,-72.3122944,,Point,965251025,Ecole Communautaire Phare des Anges,,school,
18.583237700000005,-72.3094873,,Point,965251040,Emeric Bergeaud,,school,
18.6023491,-72.33276,,Point,965251045,Instition Mixte Hosanna,,school,
18.5724408,-72.3278012,,Point,965251046,École Mixte les Rossignols,,school,
18.571679,-72.3279245,,Point,965251055,École Mixte le Dauphin,,school,
18.5646687,-72.3455646,,Point,965251065,saint martin de porres,,school,
18.6093866,-72.3388157,,Point,965251068,Ecole mixte communautaire de menelas,,school,
18.5831151,-72.30496970000002,,Point,965251071,Rocher des Touts Petits,,school,
18.580314800000004,-72.3322437,,Point,965251110,Institution Mixte de Mojavah,,school,
18.599861,-72.3355527,,Point,965251123,Ecole Baptiste Gilgal,,school,
18.5841971,-72.3040656,,Point,965251126,Henri Premier,,school,
18.565477100000003,-72.3466357,,Point,965251167,Ecole mixte tes'nv,,school,
18.600327,-72.333613,,Point,965251175,Institution Mixte Frere Noel,,school,
18.5872276,-72.307168,,Point,965251180,Universitaire de Sarthe,,school,
18.602902,-72.3397196,,Point,965251183,institution classique Babillard Grevy,350,kindergarten,
18.6017966,-72.3341436,,Point,965251198,Fondation Mixte du Village,,school,
18.5642704,-72.3433067,,Point,965251199,Ecole mixte du bon berger,,school,
18.5969802,-72.3362926,,Point,965251204,Ecole Notre Dame de Lourde,,school,
18.5631491,-72.3416965,,Point,965251206,Ecole mixte la perfection,,school,
18.574452,-72.3287871,,Point,965251277,Mercy's Chery,,school,
18.614124,-72.314262,,Point,965251294,Institution mixte la Perle de l'Ile,,school,
18.5912029,-72.3122261,,Point,965251327,Alexandro Valta,,school,
18.6026281,-72.3374905,,Point,965251354,Ecole Daniel Mission de Fontaine,,school,
18.5835376,-72.304312,,Point,965251399,Centre d'Education Moderne,,school,
18.5982735,-72.3324706,,Point,965251417,Ecole Presbiteral Notre Dame deLourde,,school,
18.591211400000002,-72.3025352,,Point,965251435,Collège mixte le Bon Berger,,kindergarten,
18.6024913,-72.3329713,,Point,965251449,Ecole La Providence de Betheleem Aurore,,school,
18.578982,-72.3376825,,Point,965251460,Ecole Mixte la Foi en Dieu,,school,
18.6133091,-72.3124024,,Point,965251474,Lycée Sibert,,school,
18.594579,-72.3053069,,Point,965251489,Bon Samaritain,,school,
18.5750291,-72.330085,,Point,965251494,Ecole mixte Philippe Louidor,,school,
18.5810052,-72.333157,,Point,965251504,Ecole Mixte St Alfonse,,school,
18.5636447,-72.3413497,,Point,965251506,collège mixte elshadaï,,school,
18.5800594,-72.3293567,,Point,965251531,Ecole Wesleyenne Jean Huss de Drouillard,,school,
18.5781817,-72.3359026,,Point,965251541,Ecole Fils du Grand Createur,,school,
18.5934489,-72.2908802,,Point,965251559,Ecole mixte Dumarsais Estimé,,school,
18.5837419,-72.3248843,,Point,965251569,Don Bosco de Drouillard,,school,
18.565334,-72.344573,,Point,965251578,Ecole mixte tes'nv,,school,
18.6164569,-72.3134504,,Point,965251604,College Saint Alphone,,school,
18.590820000000004,-72.30887,,Point,965251616,"Santinel kindergarten ,Institution Mixte Polivalente",,school,
18.5786162,-72.3286516,,Point,965251622,Ecole mixte des Vaillants,9 salles,school,
18.576111600000004,-72.3267906,,Point,965251640,Nouveau collège Ankermann,9 salles,school,
18.5964463,-72.3328227,,Point,965251643,Collegege Mixte Focus 2000,,school,
18.6053172,-72.3196168,,Point,965251718,College Bernado Haitienne,,school,
18.5960427,-72.3277196,,Point,965251724,Nouveau collège Nobel,,school,
18.5937656,-72.3055816,,Point,965251740,First College International de sarthe,,school,
18.5808217,-72.3290766,,Point,965251747,Ecole Chretienne des Freres Unis,,school,
18.5945032,-72.3162508,,Point,965251770,Centre D'etude Classique de la Communautaire,,school,
18.391515,-71.8612705,,Point,965346668,Lycée National de Fonds-Verrettes,,school,
18.3944428,-71.8608122,,Point,965346696,Institution Chrétienne Paradis des Enfants,,school,
18.3937103,-71.8527789,,Point,965346709,École Presbytérale de Saint-Croix,,school,
18.3945662,-71.8618303,,Point,965346756,École Paradis des tout Petits,,kindergarten,
18.3957751,-71.8536084,,Point,965346790,Jardin de l'Espoir,,school,
18.3989452,-71.8632727,,Point,965346883,École Communautaire de Fonds-Verrettes,,school,
18.5895977,-72.3013785,,Point,966837572,Joseph Erve,,school,
18.6166132,-72.3138975,,Point,966837581,La Renaissance_Saint-Alphonse,,school,
18.573947,-72.3290446,,Point,966837603,Ecole Nationale de Varreux,,school,
18.5808061,-72.3401218,,Point,966837608,College Mixte le Redempteur,180,school,
18.5748677,-72.3318863,,Point,966837647,Fondation Digicel Ecoles Modulaires,,school,
18.595724,-72.3131669,,Point,966837675,Jean Mary's School,,school,
18.5951119,-72.3143598,,Point,966837712,Ecole Chretienne de Terre Noire,,school,
18.5936207,-72.292485,,Point,966837789,Collège Nosirel L'Herisson,,school,
18.5910176,-72.308593,,Point,966837794,Notre Dame du sacre coeur,,school,
18.5831799,-72.30497650000001,,Point,966837834,Institution mixte de Borda,,school,
18.5746417,-72.3271016,,Point,966837872,College Mixte le Messie,,school,
18.591017,-72.3054481,,Point,966837885,Collège mixte Lesly Calixte et Fondamentale Camaraderie,,school,
18.599883,-72.3079047,,Point,966837886,Choeur des anges,,school,
18.5971229,-72.3089851,,Point,966837915,La Maison des Enfants,,school,
18.5889768,-72.3022288,,Point,966837962,College Mixte Aigle du Savoir,,school,
18.5753943,-72.3302444,,Point,966837972,Institution mixte Enfant de la Promesse,,school,
18.594666,-72.3093657,,Point,966837975,Immacule,,school,
18.5851477,-72.3108713,,Point,966837984,College Mixte Joseph Dinaus,,school,
18.5715761,-72.3278583,,Point,966837999,Academie des Petits,,school,
18.5971827,-72.3185741,,Point,966838030,Petits Foyer des Lapins,,school,
18.5940737,-72.3248978,,Point,966838051,Centre Culturel Mixte Triomphant,500,kindergarten,
18.5930252,-72.3021542,,Point,966838080,Christ le messi,,school,
18.592708,-72.3071887,,Point,966838111,La Maison des Petits,,school,
18.5868221,-72.3069264,,Point,966838253,Chretienne d'Haiti,,school,
18.5763414,-72.326942,,Point,966838295,Ecole mixte Frères en Jésus,8 salles,school,
18.5809193,-72.3315522,,Point,966838306,Institution Mixte Vision Nouvelle,,school,
18.5787786,-72.328935,,Point,966838312,Collège Evangelique Don Divin,,school,
18.5838775,-72.3252921,,Point,966838348,Ecole Pelerin de Drouillard,,school,
18.5851745,-72.3260976,,Point,966838354,Ecole Mixte Coeur Joyeux de l'Enfant Jesus,,school,
18.5955483,-72.3202758,,Point,966838399,College Mixte Taiwan,,school,
18.57513,-72.329968,,Point,966838404,Ecole mixte Gericho,,school,
18.594232,-72.3102865,,Point,966838431,Samarie,,school,
18.5975874,-72.3200805,,Point,966838450,Ecole Mixte K R D,,school,
18.5723269,-72.3267431,,Point,966838528,École Mixte Jean Calvain,,school,
18.5784721,-72.3344441,,Point,966838563,École Mixte Foyer de l'Éducation Moderne,,school,
18.5737615,-72.3286558,,Point,966838590,Ecole Presbyterale Dominique Savio,,school,
18.5745752,-72.3218084,,Point,966838600,Ecole Mixte Union Chretienne Primitive,,school,
18.5746724,-72.3259145,,Point,966838664,Ecole mixte de la Fraternite,194,school,
18.5666431,-72.3373108,,Point,966838742,Hands Together Campus mon Seigneur Miot,,school,
18.5796339,-72.3139765,,Point,966838747,Wonderful College Miracle College de Drouillard,,school,
18.5875282,-72.3091877,,Point,966838763,Institution mixte de la Nouvelle Jerusalem,,school,
18.5866446,-72.300007,,Point,966838770,Ecole Fondamentale Bethsaïda,,school,
18.57767,-72.3342293,,Point,966838778,Lycée National de Cité Soleil,,college,
18.5760945,-72.3267361,,Point,966838816,Institution mixte la maison des petits,9 salles,school,
18.5764869,-72.3289074,,Point,966838838,École Évangélique Baptiste de Jésus-Christ,,school,
18.5723562,-72.3322294,,Point,966838842,École Mixte Saint Thomas,500,school,
18.573014000000004,-72.3319491,,Point,966838876,École Saint Amboise,200,school,
18.5918385,-72.3035201,,Point,966838898,Source Divine,,school,
18.596202,-72.3115023,,Point,966838909,Ocean du savoir,,school,
18.5957807,-72.3107705,,Point,966838960,Icreme Agaper,,school,
18.599371,-72.3238054,,Point,966839014,Centre de Formation Classique de Fontaine,,school,
18.6271596,-72.262156,,Point,967185344,Grand collège Galaxie de Bon Repos,,school,
18.5701319,-72.2819188,,Point,967185348,Ecole source de la grace,,school,
18.5806263,-72.2344903,,Point,967185351,Institution Mixte jn Moleste Clement,,school,
18.5931247,-72.2355013,,Point,967185369,Ecole Foyer le Bon Berger,,school,
18.5928387,-72.2516605,,Point,967185373,Institution Americano Francaise,,school,
18.558589,-72.2680337,,Point,967185383,College Nouvelle Aliance,,school,
18.6189008,-72.3060942,,Point,967185386,Centre d'Etude Union de Sibert,,school,
18.6238572,-72.3065221,,Point,967185399,institution mixte le jardin,,school,
18.561658,-72.2631905,,Point,967185401,Siloe kindergarten,,school,
18.6303709,-72.2779465,,Point,967185416,Ecole mixte la Fraternite de Bonrepos,,school,
18.5804433,-72.2353357,,Point,967185419,Institution mixte Antonine Laurent,,school,
18.5577464,-72.2586415,,Point,967185432,Institution Chrétienne de Tabarre,,school,
18.6004145,-72.2848792,,Point,967185438,Anipapou Garderie Kindergarten,,school,
18.5824905,-72.2402555,,Point,967185447,OJVD/MBSI Centre de Formation Prof.et Primaire,,school,
18.634123400000004,-72.2980161,,Point,967185455,complex educative nouvelle vie,,school,
18.6145333,-72.3170778,,Point,967185460,École Frère Nau de Fourgy,,school,
18.5603714,-72.2597583,,Point,967185479,Vancare dorces school,,school,
18.5860095,-72.2865742,,Point,967185491,Institution mixte Chrétienne El Shaddai,,school,
18.600054,-72.258407,,Point,967185493,Ecole Nicolas Celiscat,,school,
18.6223744,-72.25519070000001,,Point,967185505,Inst.mixte Lumière,,school,
18.6284968,-72.2770793,,Point,967185509,Institut de Formation Classique d'Haiti,,school,
18.5926047,-72.2523714,,Point,967185521,Ecole S.O.S,,school,
18.5819581,-72.2383197,,Point,967185523,Institution Victoria Coseco,,school,
18.5805228,-72.2259456,,Point,967185530,Nouveau College Diocesain Saint Enfance de la Croix-des-Bouquets,,school,
18.581538,-72.2406676,,Point,967185531,Institution Source de l'instruction chretienne,,school,
18.6224326,-72.2552741,,Point,967185533,Les p'tits lapins volants,,school,
18.5735615,-72.2757485,,Point,967185541,Ecole Mixte Union Chretienne,,school,
18.5718546,-72.2799291,,Point,967185544,Intitution Canado Haitienne,,school,
18.6028304,-72.2819325,,Point,967185555,College Moderne Frere Britus,,school,
18.5599522,-72.2607575,,Point,967185560,Institution Bianca,,school,
18.5811526,-72.2538761,,Point,967185569,Le Petit Canadien,,school,
18.5632069,-72.2782835,,Point,967185572,Institution Mixte les Colibris,,school,
18.619543,-72.3030897,,Point,967185580,Ecole Mixte Evangelique les Freres Unis en Christ,,school,
18.6256563,-72.2648314,,Point,967185584,Inst. mixte Beraka,,school,
18.6011655,-72.2641081,,Point,967185593,"College Charle Gaule, Institution Pierre Jean Ronald",,school,
18.601196300000005,-72.2641227,,Point,967185600,Institiut Universel,,school,
18.5988118,-72.2844566,,Point,967185610,Ecole Mixte Boisrond Tonnerre,,school,
18.5801689,-72.2543221,,Point,967185614,College Joivil Jn Baptiste,,school,
18.6240163,-72.3085203,,Point,967185622,ecole mixte redempteur,,school,
18.578316,-72.260856,,Point,967185625,Ecole Mixte volonte de Dieu,,school,
18.625264100000003,-72.2653992,,Point,967185636,Ecole Télélou Sabrich,,school,
18.6297775,-72.2760804,,Point,967185640,College Mixte Notre Dame d'Altagrace,,school,
18.6346832,-72.2999895,,Point,967185650,ecole nationale merger,,school,
18.581528600000002,-72.2262867,,Point,967185654,College Pelicier Balan,,school,
18.6067661,-72.320733,,Point,967185655,Institution Mixte ecole Daniel,,school,
18.5908508,-72.2850675,,Point,967185665,Seneque et Josy,,school,
18.5951079,-72.2512888,,Point,967185669,Ecole Mixte Foyer Divin de Santo,,school,
18.5998666,-72.2840616,,Point,967185673,College Mixte des Freres Jean Pierre,,school,
18.6114762,-72.2375177,,Point,967185686,Ecole Complexe éducatif,,school,
18.5805337,-72.2340165,,Point,967185689,Ecole Mixte Quisqueya,,school,
18.587222,-72.29243140000001,,Point,967185702,Centre Sacré Cœur,,school,
18.6026003,-72.2851508,,Point,967185709,College Nouvelle Orientation,,school,
18.5794036,-72.2544512,,Point,967185711,College Mixte de L`avenir,,school,
18.6149012,-72.2733541,,Point,967185714,Ecole Philladelphie,,school,
18.6015927,-72.2641673,,Point,967185720,La Bergerie Ecole,,school,
18.5612212,-72.2592558,,Point,967185721,Institution Melouca,,school,
18.6055158,-72.28572,,Point,967185727,Intitution Mixte La Vigne,,school,
18.5891981,-72.2470992,,Point,967185730,Ecol Instittution Mixte des Philanthropes,,school,
18.6067993,-72.2768907,,Point,967185737,Institut Mixte Saint Esprit,,school,
18.5858991,-72.2814073,,Point,967185741,Centre d'Etude D'Haiti,,school,
18.6295232,-72.2789291,,Point,967185748,Ecole Saint Marc de Bonrepos,,school,
18.5801933,-72.2271472,,Point,967185756,Centre d'etude classiques Mixte de St-Hubert paul,,school,
18.6088285,-72.3261145,,Point,967185760,Institution mixte Interdenominationale Haitienne,,school,
18.627214000000002,-72.3054624,,Point,967185768,foyer des orphelins,,kindergarten,
18.5761373,-72.2645378,,Point,967185772,Jean Paul 2,,school,
18.5923025,-72.2449792,,Point,967185776,Ecole National de Tamarin,,school,
18.579123400000004,-72.2358352,,Point,967185779,Institution Mixte le Jardin Fleuri de Jonide,,school,
18.6294308,-72.2734433,,Point,967185786,Institutut Wunie l'Ourson King,,school,
18.615478,-72.2467373,,Point,967185788,Ecole du sacré coeur,,school,
18.5621307,-72.2787535,,Point,967185805,College Moderne de Gaston Bachelard,,school,
18.6261588,-72.2709028,,Point,967185813,Institution Mixte la Bonne Semence,,school,
18.6243849,-72.2642334,,Point,967185823,Collège Mixte la Plenitude,,school,
18.5774372,-72.2612454,,Point,967185826,Souvenise_Brunie,,school,
18.5725839,-72.27560170000001,,Point,967185830,College Saint Paul,,school,
18.5671952,-72.2838317,,Point,967185836,Collège Valescot Franckee,,school,
18.5862361,-72.2844056,,Point,967185846,Collège Voltaire d'Haïti,,school,
18.5791977,-72.2553709,,Point,967185856,Institution Mixte Fritz Descolines,,school,
18.6164001,-72.3102499,,Point,967185869,Ecole la Providence de Sibert,,school,
18.5620552,-72.2755802,,Point,967185870,College Mixte Saint Laurent Samedi,,school,
18.5869878,-72.2428776,,Point,967185881,College Wonderful,,school,
18.5798546,-72.2505237,,Point,967185886,Istitution mixte-du savoir,,school,
18.6163903,-72.2735654,,Point,967185889,College Andi le Gran,,school,
18.5803986,-72.2363294,,Point,967185900,Institution Mixte Zamar,,school,
18.5694787,-72.2818604,,Point,967185910,Ecole primaire mixte Emmanuel,,school,
18.6208635,-72.3054167,,Point,967185929,College Mixte Bougain Villee King,,school,
18.5576514,-72.2658186,,Point,967185934,Institution Mixte Évangélique Ministère de la Croix,,school,
18.6032542,-72.2840255,,Point,967185937,"Institution Mixte Bounny Kindergarten,Fondamentale",,school,
18.5651372,-72.2819476,,Point,967185945,Lycée Antoine Georges Ismery,,school,
18.6124475,-72.2769148,,Point,967185949,College Eujenson Leger,,school,
18.5823523,-72.2435337,,Point,967185954,Institution Mixte Maison Frere Donat,,school,
18.5630717,-72.2779013,,Point,967185963,Institution Foyer Divin,,school,
18.6249604,-72.2606954,,Point,967185965,Coeur d'Education Scolaire Loïs Aiméry,,school,
18.5875118,-72.287271,,Point,967185976,Infotec,,school,
18.5626283,-72.27915,,Point,967185981,Ecole Mixte Maranatha Gaderie Educative Kindergarten,,school,
18.5875561,-72.2464887,,Point,967185989,Le Nid Kindergaten,,school,
18.5804722,-72.2259373,,Point,967185992,Institution Scede-anne,,school,
18.5888855,-72.247182,,Point,967186002,College Mixte Jean Audile,,school,
18.6298342,-72.2859363,,Point,967186008,Institution mixte Imago Dei,,school,
18.6078111,-72.2764816,,Point,967186019,Institution Mixte Le Louverturien,,school,
18.6079531,-72.3227482,,Point,967186024,Instition mixte de Martial,,school,
18.5708259,-72.28098660000002,,Point,967186028,Kindergarten les Colinours,,school,
18.5791131,-72.2542126,,Point,967186032,Institution Mixte La Colombe,,school,
18.6253447,-72.2693441,,Point,967186035,Berceau de l'Education,,school,
18.5729963,-72.2818467,,Point,967186039,Institution Nouvelle Source,,school,
18.5987425,-72.2842794,,Point,967186043,Centre d'etude communautaire de vision,,school,
18.5813293,-72.2435724,,Point,967186049,College Indhira Gandhi,,school,
18.5964402,-72.2587276,,Point,967186052,Ecole Jolly Garten,,school,
18.5811497,-72.2274448,,Point,967186058,Institution de Formation Emile St-lot,,school,
